name;lat;lon;id;gtfsid;gtfsname;gtfslat;gtfslon
ABB Verkö;56.16704507799;15.633753364184;1086;7431844;ABB Verkö;56.166659417864;15.634141658087
ABU Svängsta;56.266006501649;14.768411988256;3028;7432465;ABU;56.265980278255;14.768493524404
ABU-muséet Svängsta;56.265330337838;14.768107510474;3183;7432592;ABU-muséet;56.265349011768;14.768187829478
Afvelsgärdevägen Lyckeby;56.206980945821;15.659388174186;1052;7431811;Afvelsgärdevägen;56.207016898258;15.659420513981
Agerum;56.154755363518;14.638920389878;4107;7432691;Agerum;56.154889781487;14.638884213543
Agerum Södra;56.146921618622;14.641603522044;4108;7432692;Agerum södra;56.146922560725;14.641700116468
Agrasjö Olofström;56.264863599857;14.550967333043;6020;7432785;Agrasjö;56.264620442783;14.553557689093
Alamedan Karlskrona;56.15900838344;15.589049225939;1058;7431817;Alamedan;56.15904440567;15.589113631313
Alfargatan;56.412172754436;16.00092619092;8090;7451719;Allfargatan;56.412342099696;16.001753584049
Alholmen;56.155896739841;14.675707644208;4066;7432657;Alholmen;56.155860853754;14.675708789588
Allarp Leingarydsvägen;56.131551870937;14.522664487211;5070;7414614;Allarp Leingarydsvägen;56.131551910665;14.522664549286
Allatorp;56.220603093196;15.590586924738;1430;7410009;Allatorp;56.220567079311;15.590539009106
Allatorp norra;56.229712003093;15.581716352026;1482;7432145;Allatorp norra;56.229712115747;15.581781083968
Allévägen;56.216412265523;15.597750568949;1431;7432109;Allévägen;56.216448291169;15.597815084944
Alljungen vsk;56.378022733035;15.562910846544;1341;7432040;Alljungen vsk;56.378040773177;15.562943353709
Allsjömåla;56.318377041748;15.738470583432;1322;7432026;Allsjömåla;56.318359101564;15.738503206322
Almöbron;56.166338686203;15.459815837974;2087;7432267;Almöbron;56.166383581046;15.459815647635
Almvägen Kallinge;56.23675117663;15.296530612165;2027;7432215;Almvägen;56.236768878707;15.296466068949
Alnaryd;56.341105227444;15.430841243969;1384;7410013;Alnaryd;56.341069515781;15.430906504886
Alvesta station;56.899022949518;14.557130989738;7067;7400004;Alvesta station;56.898776091892;14.557582590554
ABB Verkö;56.16704507799;15.633753364184;1086;7431844;ABB Verkö;56.166659417864;15.634141658087
ABU Svängsta;56.266006501649;14.768411988256;3028;7432465;ABU;56.265980278255;14.768493524404
ABU-muséet Svängsta;56.265330337838;14.768107510474;3183;7432592;ABU-muséet;56.265349011768;14.768187829478
Afvelsgärdevägen Lyckeby;56.206980945821;15.659388174186;1052;7431811;Afvelsgärdevägen;56.207016898258;15.659420513981
Agerum;56.154755363518;14.638920389878;4107;7432691;Agerum;56.154889781487;14.638884213543
Agerum Södra;56.146921618622;14.641603522044;4108;7432692;Agerum södra;56.146922560725;14.641700116468
Agrasjö Olofström;56.264863599857;14.550967333043;6020;7432785;Agrasjö;56.264620442783;14.553557689093
Alamedan Karlskrona;56.15900838344;15.589049225939;1058;7431817;Alamedan;56.15904440567;15.589113631313
Alfargatan;56.412172754436;16.00092619092;8090;7451719;Allfargatan;56.412342099696;16.001753584049
Alholmen;56.155896739841;14.675707644208;4066;7432657;Alholmen;56.155860853754;14.675708789588
Allarp Leingarydsvägen;56.131551870937;14.522664487211;5070;7414614;Allarp Leingarydsvägen;56.131551910665;14.522664549286
Allatorp;56.220603093196;15.590586924738;1430;7410009;Allatorp;56.220567079311;15.590539009106
Allatorp norra;56.229712003093;15.581716352026;1482;7432145;Allatorp norra;56.229712115747;15.581781083968
Allévägen;56.216412265523;15.597750568949;1431;7432109;Allévägen;56.216448291169;15.597815084944
Alljungen vsk;56.378022733035;15.562910846544;1341;7432040;Alljungen vsk;56.378040773177;15.562943353709
Allsjömåla;56.318377041748;15.738470583432;1322;7432026;Allsjömåla;56.318359101564;15.738503206322
Almöbron;56.166338686203;15.459815837974;2087;7432267;Almöbron;56.166383581046;15.459815647635
Almvägen Kallinge;56.23675117663;15.296530612165;2027;7432215;Almvägen;56.236768878707;15.296466068949
Alnaryd;56.341105227444;15.430841243969;1384;7410013;Alnaryd;56.341069515781;15.430906504886
Alvesta station;56.899022949518;14.557130989738;7067;7400004;Alvesta station;56.898776091892;14.557582590554
Amiralen Lyckeby;56.197316766252;15.64450761418;1041;7431800;Amiralen;56.197298751421;15.644475717498
Anderslund;56.415014675876;14.660062434097;7062;7436539;Anderslund;56.415553171578;14.660013984299
Angöringen Karlskrona;56.207329467992;15.643643657665;1133;7431886;Angöringen;56.207356380439;15.643627677356
Aniara Olofström;56.277869976954;14.526485294552;6002;7432771;Aniara;56.27790594854;14.526484194532
Ankaret Karlskrona;56.196428932832;15.61403267048;1064;7431823;Ankaret;56.196446884715;15.614032822447
Annebergsvägen Torhamn;56.128036604439;15.885235936191;1203;7431943;Annebergsvägen;56.128045600234;15.885171914453
Annebo Karlskrona;56.185942671135;15.605001959701;1037;7431796;Annebo;56.185924802693;15.605066711964
Aplakärr;56.190800215672;14.927863791596;3150;7432567;Aplakärr;56.190782503675;14.927896546984
Appleryd Tombäcksv;56.310092759068;15.985946222201;1268;7434667;Appleryd Tombäcksv.;56.310074890304;15.985881815886
Arkelstorpsvägen;56.352664278972;14.485739594893;6074;7432833;Arkelstorpsvägen;56.352656057474;14.48580470116
Asarums kyrka;56.20512447709;14.834077161742;3013;7410042;Asarum kyrka;56.205258186351;14.833944993376
Askaremåla;56.326810937251;14.887886846147;3189;7432598;Askaremåla;56.326829174284;14.8879188946
Askaremåla Hallabro;56.383683449219;15.074697437105;2140;7432309;Askaremåla;56.383665332575;15.074665596529
Askvägen;56.387071159319;15.106138386054;2138;7432307;Askvägen;56.387080355379;15.106170791281
Aspöfärjan Karlskrona;56.16308159513;15.597025597642;1456;7432125;Karlskrona Aspöfärjan;56.16308155337;15.597009738493
Aspvägen Bräkne Hoby;56.223645747507;15.111603650968;2208;7432367;Aspvägen;56.223654560164;15.111571417679
Attanäs;56.1706502325;15.930849696614;1208;7431948;Attanäs;56.170668206655;15.930817850038
Augerums kyrka;56.217059189016;15.676869768175;1278;7431996;Augerums kyrka;56.217184998058;15.676950187442
Avundstorp;56.327754503562;14.853464423198;3099;7432523;Avundstorp;56.327736584652;14.853465022096
Axeltorp;56.144671247431;14.521487129923;56087;7414612;Bromölla Axeltorp;56.144652662366;14.52142346031
Backabo Karlskrona;56.203016490977;15.629048328438;1029;7431791;Backabo;56.203025370085;15.628984084191
Backaryd;56.347766723838;15.153211453787;2127;7401015;Backaryd;56.347730488819;15.153147573269
Backarydsskolan Backaryd;56.341826617991;15.157646715989;2126;7432298;Backarydsskolan;56.341826474519;15.157614570089
Bäckasjögärde Backaryd;56.333520451011;15.171772328371;2125;7432297;Bäckasjögärde;56.333547664279;15.171820572655
Bäckasjön Backaryd;56.32437971949;15.173912054428;2124;7432296;Bäckasjön;56.324397703046;15.173911949959
Baggemåla Månaskensvägen;56.323428663787;14.656924656294;6109;7432864;Baggemåla;56.323464032623;14.656859065777
Bakareboda;56.406135491785;15.546663311486;1347;7432046;Bakareboda;56.406117685094;15.546728474603
Baldersvägen Karlshamn;56.181688994723;14.852174607674;3009;7432452;Baldersvägen;56.181688396071;14.852094225814
Bangatan Olofström;56.273039239178;14.522288025847;6005;7422083;Olofström Bangatan;56.273012360009;14.522289026134
Båtslyckevägen;56.351228344515;14.584818306156;6053;7432816;Båtslyckevägen;56.351246681059;14.584850197664
Belganet;56.388554026815;15.030824249651;2144;7432313;Belganet;56.388518346664;15.030857541289
Bellevueparken;56.176797933398;14.849188272899;3910;7435419;Bellevueparken;56.176815665857;14.849155749256
Benabacken Nättraby;56.201276410175;15.531889164731;1418;7432098;Benabacken;56.20114158246;15.531842022685
Bengtsavägen Lyckeby;56.188915405781;15.663032746162;1078;7431836;Bengtsavägen;56.188788723938;15.662228165553
Bengtsaviken Lyckeby;56.187290571361;15.656081265715;1079;7431837;Bengtsaviken;56.187254673987;15.656113864431
Bengtsboda;56.319411680004;14.778293206732;3094;7410083;Bengtsboda;56.319412260257;14.77835798053
Berg Tving;56.299866156867;15.475375194117;1377;7432069;Berg;56.29988421286;15.475407574661
Bergåsa station;56.182577462289;15.601170847814;1297;7401537;Bergåsa station;56.182388529373;15.600978853335
Berget Torskors;56.207584207907;15.632830144201;1294;7432009;Berget;56.207611141846;15.632830268344
Bergkvara Gökalund;56.394830327768;16.065139836189;8093;7400572;Bergkvara Gökalund;56.394802719034;16.065463826339
Backabo Karlskrona;56.203016490977;15.629048328438;1029;7431791;Backabo;56.203025370085;15.628984084191
Backaryd;56.347766723838;15.153211453787;2127;7401015;Backaryd;56.347730488819;15.153147573269
Backarydsskolan Backaryd;56.341826617991;15.157646715989;2126;7432298;Backarydsskolan;56.341826474519;15.157614570089
Bäckasjögärde Backaryd;56.333520451011;15.171772328371;2125;7432297;Bäckasjögärde;56.333547664279;15.171820572655
Bäckasjön Backaryd;56.32437971949;15.173912054428;2124;7432296;Bäckasjön;56.324397703046;15.173911949959
Baggemåla Månaskensvägen;56.323428663787;14.656924656294;6109;7432864;Baggemåla;56.323464032623;14.656859065777
Bakareboda;56.406135491785;15.546663311486;1347;7432046;Bakareboda;56.406117685094;15.546728474603
Baldersvägen Karlshamn;56.181688994723;14.852174607674;3009;7432452;Baldersvägen;56.181688396071;14.852094225814
Bangatan Olofström;56.273039239178;14.522288025847;6005;7422083;Olofström Bangatan;56.273012360009;14.522289026134
Båtslyckevägen;56.351228344515;14.584818306156;6053;7432816;Båtslyckevägen;56.351246681059;14.584850197664
Belganet;56.388554026815;15.030824249651;2144;7432313;Belganet;56.388518346664;15.030857541289
Bellevueparken;56.176797933398;14.849188272899;3910;7435419;Bellevueparken;56.176815665857;14.849155749256
Benabacken Nättraby;56.201276410175;15.531889164731;1418;7432098;Benabacken;56.20114158246;15.531842022685
Bengtsavägen Lyckeby;56.188915405781;15.663032746162;1078;7431836;Bengtsavägen;56.188788723938;15.662228165553
Bengtsaviken Lyckeby;56.187290571361;15.656081265715;1079;7431837;Bengtsaviken;56.187254673987;15.656113864431
Bengtsboda;56.319411680004;14.778293206732;3094;7410083;Bengtsboda;56.319412260257;14.77835798053
Berg Tving;56.299866156867;15.475375194117;1377;7432069;Berg;56.29988421286;15.475407574661
Bergåsa station;56.182577462289;15.601170847814;1297;7401537;Bergåsa station;56.182388529373;15.600978853335
Berget Torskors;56.207584207907;15.632830144201;1294;7432009;Berget;56.207611141846;15.632830268344
Bergkvara Gökalund;56.394830327768;16.065139836189;8093;7400572;Bergkvara Gökalund;56.394802719034;16.065463826339
Bergtorpsvägen;56.312178020413;15.627799880096;1386;7432075;Bergtorpsvägen;56.312142149243;15.627832616993
Besmanvägen Sölvesborg;56.06044467962;14.617145214775;4001;7432606;Besmanvägen;56.06046142348;14.617016328314
Binga;56.198166594004;15.34169979076;2233;7432387;Binga;56.198148874042;15.341764644538
Binga vsk;56.195380810049;15.338882170193;2105;7423358;Binga vägskäl;56.195354536579;15.339059886526
Biskopsmåla;56.299765674213;14.559774121572;6061;7410101;Biskopsmåla;56.299802296126;14.559837656612
Biskopsmåla vsk;56.304111941536;14.561474372454;6060;7423342;Biskopsmåla vägskäl;56.304129956181;14.561473898711
Bjäraryd;56.154397482346;14.601627838248;4091;7432679;Bjäraryd;56.154441787024;14.601562160398
Bjäraryds fryshus;56.151636420821;14.603098126443;4090;7432678;Bjäraryds fryshus;56.151672373263;14.60309708292
Bjärby Nättraby;56.202369552412;15.51127439948;1405;7432088;Bjärby;56.202351430803;15.511210317501
Bjärbylund;56.198026163878;15.480441034433;1407;7432090;Bjärbylund;56.198053185637;15.480473246059
Bjäret;56.480818539055;14.20100558412;5095;7414762;Bjäret;56.480792128426;14.201039285676
Björkbacken;56.240837457011;14.576011931865;6139;7437743;Björkbacken;56.240863801456;14.575946668507
Björkdalavägen;56.200525146995;15.894970778467;1190;7431931;Björkdalavägen;56.200516139129;15.894987156094
Björkedal Brömsebro;56.289281521862;15.987689505008;1161;7431907;Björkedal;56.28932637502;15.987722319377
Björkefall;56.389713546556;14.572948303227;6104;7432860;Björkefall;56.389749365054;14.572931086965
Björkehed Kallinge;56.250400859779;15.281120530248;2019;7432208;Björkehed;56.25044577162;15.28112011245
Björkelycke Brömsebro;56.312811284734;16.016207131364;8104;7431545;Björkelycke;56.313079500752;16.016919878893
Björkenäs;56.168085017248;15.927460948186;1196;7431937;Björkenäs Karlskrona;56.168067066037;15.927428988395
Björkenäs kvarn;56.164758806418;15.921430584835;1197;7431938;Björkenäs kvarn;56.164749774258;15.921463040014
Björkeryd;56.264537867882;15.50827872926;1472;7432136;Björkeryd;56.264493044203;15.508311585435
Björketorp Gärestadsvägen;56.19869805744;15.374349042961;2109;7432284;Björketorp;56.198715848385;15.374300716202
Björkvägen Kallinge;56.24073763667;15.291913422458;2260;7432410;Björkvägen Ronneby;56.240701654613;15.291897973978
Björnsjön;56.293697775845;14.551249795688;6063;7432824;Björnsjön;56.293698487197;14.551314487053
Bjurabyggetv;56.386828596897;15.642345269133;1396;7432082;Bjurabyggetvägen;56.38679273122;15.642378063911
Boa;56.292453421762;14.525335774255;4103;7432847;Vilshultsvägen;56.299002403777;14.525456008448
Boalt;56.292453421762;14.525335774255;5039;7432847;Vilshultsvägen;56.299002403777;14.525456008448
Boasjöbäck;56.432296736192;15.221916429558;2186;7432348;Boasjöbäck;56.432314576849;15.221883951812
Bodetorpskolan Karlshamn;56.168948186802;14.871502925131;3142;7432559;Bodetorpskolan;56.168993592588;14.871566339114
Böglarehult;56.41543138637;14.294081468461;5087;7414823;Böglarehult;56.41540414726;14.294050254121
Böglarehult N;56.420941213109;14.284852193108;5088;7414719;Böglarehult N;56.420951074883;14.284916737362
Bokelundskolan Sölvesborg;56.050206647914;14.571558471252;4115;7432697;Bokelundskolan;56.050224951812;14.571590035087
Bökevik;56.164237801457;15.161930563782;2064;7432247;Bökevik;56.164201714383;15.16189914191
Bokön;56.314630037421;15.317664085289;2161;7410135;Bokön;56.314630308062;15.317728929212
Bokskogsvägen Nättraby;56.210520450654;15.541298877523;1413;7432096;Bokskogsvägen;56.210502448448;15.541283118077
Bolsabacken;56.039146081631;14.713026355788;4032;7432629;Bolsabacken;56.039068143293;14.712338706746
Boråkra;56.223064994727;15.581126526956;1433;7432110;Boråkra;56.223065077431;15.581175126766
Borås;57.720839566334;12.931701409494;9944;7400300;Borås Centralstation;57.720837618539;12.932004282981
Borgen;56.202645938723;14.74560013581;3048;7432482;Borgen;56.202645556577;14.74555191985
Bostorp Spjutsbygd;56.302403375945;15.581532480484;1360;7411306;Bostorp;56.30236742891;15.581516784028
Botahultvägen;56.622038152161;14.922891067246;7026;7436689;Botahultsvägen;56.622038215076;14.922891278679
Bräkne Hoby;56.230852740609;15.115536514768;2207;7400368;Bräkne-Hoby station;56.230880595576;15.115697424755
Bräkne Hoby grundskola;56.22710176061;15.117716049036;2205;7432365;Bräkne Hoby grundskola;56.22710222267;15.117796823123
Bräkne Hoby station;56.230639552542;15.115959574889;2311;7400368;Bräkne-Hoby station;56.230880595576;15.115697424755
Bräkneboda vsk;56.253672023551;14.760597986818;3041;7432476;Bräkneboda vsk;56.253698999439;14.760597376693
Bräknevägen Ronneby;56.204064806484;15.289052957943;2100;7432277;Bräknevägen;56.204046645526;15.28900505619
Bramstorp;56.823135292284;14.878594171126;7010;7435474;Bramstorp;56.823135368545;14.87859441139
Brände udde;56.862309338519;14.838472921934;7005;7435060;Brände Udde;56.862309418175;14.8384731661
Brändekvarnsvägen;56.716726494443;14.933705378509;7017;7435432;Brändekvarnsvägen;56.716753957783;14.933770298346
Brandstationen Ronneby;56.211231053277;15.280366830926;2002;7432196;Brandstationen;56.21119513463;15.280367514077
Brännaregårdsskolan Olofström;56.281206549158;14.550593360178;6093;7432850;Brännaregårdsskolan;56.281206604677;14.550593463546
Bränteknuva by;56.245788569299;15.541168269989;1483;7432146;Bränteknuva by;56.245797618289;15.541200702526
Bränteknuva vsk;56.243858366625;15.558859184241;1468;7432132;Bränteknuva vsk;56.243858235888;15.558794905938
Branthalla;56.146839443991;15.827742129139;1220;7431958;Branthalla;56.146839415959;15.827774579478
Bråstorp;56.296149382114;15.482675365685;1376;7432068;Bråstorp;56.296131512613;15.482708050738
Bråtelycke;56.245239215083;16.005127154209;1176;7431918;Bråtelycke;56.245203333324;16.005095015644
Bredåkra;56.256889274671;15.251182178716;2116;7423403;Bredåkra;56.256871324845;15.251182632126
Bredåkra kyrka;56.255544946834;15.251814739513;2020;7410167;Bredåkra kyrka;56.255527141329;15.251847459053
Bredåkra östra;56.254297309369;15.258028150823;2266;7410167;Bredåkra kyrka;56.255527141329;15.251847459053
Bredäng;56.158444876315;15.911626958554;1198;7431939;Bredäng Karlskrona;56.158471797503;15.911627320556
Bredäng Ronneby;56.164655766995;15.368163971653;2241;7432395;Bredäng Ronneby;56.164656045746;15.368244647784
Bredavik;56.114024569153;15.691152607265;1241;7431976;Bredavik;56.114006552269;15.691120759066
Brödhult;56.325909159822;14.578449707722;6057;7432820;Brödhult;56.325944492462;14.578384032202
Brödlösevägen;56.416179440981;15.544051197517;1349;7432048;Brödlösevägen;56.416170514795;15.544067712437
Brofästet Möcklösund;56.136693984126;15.742136228644;1487;7432147;Brofästet;56.136676033015;15.742200853538
Brogölen;56.433792715505;15.349463816104;2174;7432340;Brogölen;56.433837526261;15.349431088908
Bromåla Svängstavägen;56.246257717679;14.760058050982;3042;7432477;Bromåla;56.246239250151;14.75999415368
Bromålavägen;56.318742805696;15.720079089354;1321;7432025;Bromålavägen;56.318706886607;15.720079437739
Bromölla busstation;56.072106627257;14.47495497386;5005;7414604;Bromölla Nygatan;56.073309856449;14.476583712717
Bromölla Idrottshallen;56.080514904458;14.475050507414;5066;7414617;Bromölla Idrottshallen;56.080568813803;14.475048691071
Bromölla Industrigatan;56.065396583424;14.479922827904;5104;7414605;Bromölla Industrigatan;56.065444788457;14.48022627908
Bromölla Läkarstationen;56.079706409203;14.473375803648;5065;7414618;Bromölla Läkarstationen;56.079741667583;14.473310379985
Bromölla Nygatan;56.073273732754;14.476568856284;5064;7414604;Bromölla Nygatan;56.073309856449;14.476583712717
Bromölla Smedåkravägen;56.08644456262;14.480195599703;5067;7414616;Bromölla Smedåkravägen;56.086462039863;14.480146849563
Bromölla station;56.065826691429;14.469005804067;5029;7414598;Bromölla Brahegatan;56.066221444198;14.468960061435
Bromölla Tiansgården;56.069213780336;14.477399130234;5006;7404345;Bromölla Tiansgård;56.069186533384;14.477367992258
Bröms Brömsebro;56.320090218021;16.0290952839;8103;7451729;Bröms;56.320241756113;16.02972677134
Brömsebro;56.298431341337;16.000654550187;1162;7400597;Brömsebro E22;56.298556765846;16.000849320641
Brömsvägen;56.302329200352;16.006198928863;1267;7434659;Brömsvägen E22;56.302320217467;16.006199190474
Bröstorp;56.292281619966;15.494351903844;1375;7432067;Bröstorp;56.292299628808;15.494368139651
Brostugan Jämshög;56.256269830465;14.529190967504;6007;7432775;Brostugan;56.256287342901;14.529142073031
Brovägen Ronneby;56.418164107227;15.054105701887;2134;7432304;Brovägen;56.418208849335;15.054072604873
Bubbetorp Rödeby;56.229410966735;15.628571794064;1300;7432010;Bubbetorp;56.229428876565;15.628539711933
Bultvägen;56.51955435259;14.985324761393;7070;7436654;Bultvägen;56.519178573754;14.986892753665
Bustorp;56.184980992637;15.27241585658;2080;7432260;Bustorp;56.184935811803;15.272352251652
Byabacken;56.230609353757;14.611975850813;6037;7432802;Byabacken;56.230617755532;14.611911190427
Byasjövägen;56.302181305975;15.471316739751;1378;7432070;Byasjövägen;56.302208344147;15.471349041422
Bygatan Tving;56.311467365413;15.458212362896;1380;7424914;Tving Bygatan;56.311512188316;15.458179869586
Bygdegården Ronneby;56.193711234663;15.346312273708;2106;7432281;Bygdegården;56.19367537028;15.346329010259
Byvägen Norje;56.120686137049;14.670582434201;4061;7432652;Byvägen;56.120695586604;14.670630474292
Carlandravägen Lyckeby;56.204816206649;15.6591225324;1053;7431812;Carlandravägen;56.204861082327;15.659106497458
Carlemansvägen Lyckeby;56.196601388475;15.661505940388;1033;7431793;Carlemansvägen;56.196601433764;15.661554517503
Chapmanskolan Karlskrona;56.163916396386;15.591532445377;1055;7431814;Chapmanskolan;56.163898364235;15.591500589805
Chapmansplan Karlskrona;56.161842089983;15.576720728327;1095;7431853;Chapmansplan;56.161806122019;15.57670508052
Chapmansplan vändplats Karlskrona;56.16115881671;15.576338535403;1097;7431855;Chapmansplan vändplats;56.161176854303;15.576386943491
Carlandravägen Lyckeby;56.204816206649;15.6591225324;1053;7431812;Carlandravägen;56.204861082327;15.659106497458
Carlemansvägen Lyckeby;56.196601388475;15.661505940388;1033;7431793;Carlemansvägen;56.196601433764;15.661554517503
Chapmanskolan Karlskrona;56.163916396386;15.591532445377;1055;7431814;Chapmanskolan;56.163898364235;15.591500589805
Chapmansplan Karlskrona;56.161842089983;15.576720728327;1095;7431853;Chapmansplan;56.161806122019;15.57670508052
Chapmansplan vändplats Karlskrona;56.16115881671;15.576338535403;1097;7431855;Chapmansplan vändplats;56.161176854303;15.576386943491
Dalamad Nättraby;56.188378819646;15.515810872649;1425;7432104;Dalamad;56.188351906463;15.515827407123
Dalängsvägen;56.734221063367;14.933741238753;7015;7435428;Dalängsvägen;56.734140548752;14.933776014298
Dalanshult;56.393836269051;14.620862188992;6048;7432812;Dalanshult;56.393809704061;14.620895541784
Dalby Nättraby;56.204730225537;15.538309607085;1414;7411165;Nättraby Dalby;56.205018200927;15.538581748446
Dalhem;56.483744600194;14.184259191441;5096;7404137;Dalhem;56.483019947919;14.185848595766
Dammarnas vsk Ronneby;56.245685924741;15.248311802828;2033;7432221;Dammarnas vsk;56.245721711208;15.248279213619
Dannemark Ringamålavägen;56.328434748854;14.874414263517;3100;7410233;Dannemark;56.328435152587;14.874462905659
Danstorp;56.240693705141;14.795176948491;3021;7432459;Danstorp;56.240693475388;14.795144824214
Djupadals vsk Ronneby;56.226611804542;15.279446805248;2004;7432198;Djupadals vsk;56.226639026814;15.27951111379
Djupafors;56.240302638431;15.265711444518;2316;7459463;Djupafors;56.24032088966;15.265775892424
Djupasund;56.109256395024;15.624561152607;1257;7431987;Djupasund;56.109256418647;15.624593533688
Djupekås;56.070592579576;14.71213633458;4076;7432667;Djupekås;56.07059216938;14.712088249459
Djupekås vsk;56.071895301683;14.69808048969;4075;7432666;Djupekås vsk;56.071904299123;14.698080306222
Djuramåla;56.463867986499;15.013651250831;7043;7436650;Djuramåla;56.463868031938;15.0136514454
Djurparken Kyrkhult;56.384547348216;14.580918830698;6105;7432861;Djurparken;56.38452897487;14.580870984185
Djurtorp;56.22007049606;15.400109121254;2229;7432385;Djurtorp;56.220088669462;15.400173617027
Djurtorpsvägen;56.210821260604;15.406008452277;2223;7432380;Djurtorpsvägen;56.210857390988;15.406072748095
Dockemåla;56.437279187946;15.038554325837;2136;7432306;Dockemåla;56.437243711232;15.038620080709
Dragsnäs;56.163579778139;15.198704439546;2061;7432244;Dragsnäs;56.16358009535;15.198768989571
Dragsnäs gård;56.160935579397;15.201611033749;2060;7432243;Dragsnäs gård;56.160899342512;15.201547396137
Dalamad Nättraby;56.188378819646;15.515810872649;1425;7432104;Dalamad;56.188351906463;15.515827407123
Dalängsvägen;56.734221063367;14.933741238753;7015;7435428;Dalängsvägen;56.734140548752;14.933776014298
Dalanshult;56.393836269051;14.620862188992;6048;7432812;Dalanshult;56.393809704061;14.620895541784
Dalby Nättraby;56.204730225537;15.538309607085;1414;7411165;Nättraby Dalby;56.205018200927;15.538581748446
Dalhem;56.483744600194;14.184259191441;5096;7404137;Dalhem;56.483019947919;14.185848595766
Dammarnas vsk Ronneby;56.245685924741;15.248311802828;2033;7432221;Dammarnas vsk;56.245721711208;15.248279213619
Dannemark Ringamålavägen;56.328434748854;14.874414263517;3100;7410233;Dannemark;56.328435152587;14.874462905659
Danstorp;56.240693705141;14.795176948491;3021;7432459;Danstorp;56.240693475388;14.795144824214
Djupadals vsk Ronneby;56.226611804542;15.279446805248;2004;7432198;Djupadals vsk;56.226639026814;15.27951111379
Djupafors;56.240302638431;15.265711444518;2316;7459463;Djupafors;56.24032088966;15.265775892424
Djupasund;56.109256395024;15.624561152607;1257;7431987;Djupasund;56.109256418647;15.624593533688
Djupekås;56.070592579576;14.71213633458;4076;7432667;Djupekås;56.07059216938;14.712088249459
Djupekås vsk;56.071895301683;14.69808048969;4075;7432666;Djupekås vsk;56.071904299123;14.698080306222
Djuramåla;56.463867986499;15.013651250831;7043;7436650;Djuramåla;56.463868031938;15.0136514454
Djurparken Kyrkhult;56.384547348216;14.580918830698;6105;7432861;Djurparken;56.38452897487;14.580870984185
Djurtorp;56.22007049606;15.400109121254;2229;7432385;Djurtorp;56.220088669462;15.400173617027
Djurtorpsvägen;56.210821260604;15.406008452277;2223;7432380;Djurtorpsvägen;56.210857390988;15.406072748095
Dockemåla;56.437279187946;15.038554325837;2136;7432306;Dockemåla;56.437243711232;15.038620080709
Dragsnäs;56.163579778139;15.198704439546;2061;7432244;Dragsnäs;56.16358009535;15.198768989571
Dragsnäs gård;56.160935579397;15.201611033749;2060;7432243;Dragsnäs gård;56.160899342512;15.201547396137
Dragsvik;56.110709776539;15.7113989094;1239;7431974;Dragsvik;56.110700757349;15.711383109024
Drottninggatan Karlskrona;56.162353702699;15.591541164208;1056;7431815;Drottninggatan;56.162371594314;15.591509109337
Dubbvägen;56.51713799699;14.996196596748;7071;7436652;Dubbvägen;56.517312767468;14.9954457683
Duverum Jämjö;56.18678004204;15.808534840069;1145;7431894;Duverum;56.186806970325;15.808470693501
E22 Jämjö;56.202800214731;15.858353714087;1165;7431908;E22 Jämjö;56.202782211159;15.858418418828
Ebbalycke;56.134040752253;14.606768081436;4087;7410259;Ebbalycke;56.134013223834;14.6067046769
Ebbamåla Ronneby;56.447649137674;15.027967057616;2137;7410260;Ebbamåla;56.447685506767;15.028031372331
Ebbemåla Olofström;56.365975966903;14.667845625949;6115;7432869;Ebbemåla;56.365958362085;14.667878653149
Edenryd;56.043503740313;14.509173581682;5047;7422146;Nymölla Kiosken;56.044088979848;14.473898133412
Edenryd Skolan;56.043896433846;14.517504914736;5046;7435431;Valjeviken;56.048998887144;14.556863996444
Edestad;56.218617871541;15.366629861705;2230;7423343;Edestad;56.21862696812;15.366662200519
Edestad kyrka;56.217038453739;15.359459296247;2231;7410266;Edestad kyrka;56.217074261522;15.359426847836
Edstorp;56.20820719247;15.051839666443;3165;7432576;Edstorp;56.208216580198;15.051904097792
Egilslunden Långö;56.174390926972;15.582860468048;1126;7431881;Egilslunden;56.174391001835;15.582909002372
Ekdungen;56.232327740576;14.527778460392;6066;7432827;Ekdungen;56.23229254374;14.527844226066
Ekeberg Karlskrona;56.198547559688;15.619306197108;1027;7431789;Ekeberg;56.198430358578;15.61901702848
Ekedalsvägen Jämjö;56.190900282671;15.82891030135;1146;7431895;Ekedalsvägen;56.190936188104;15.828926705559
Ekedalsvägen Lyckeby;56.193458927255;15.662274849771;1076;7431834;Ekedalsvägen;56.193458840459;15.662210667387
Ekekullen;56.311146493115;15.599722964292;1330;7432032;Ekekullen;56.311110576036;15.599723407833
Ekenäs badplats Ronneby;56.172992852848;15.28121163127;2049;7423355;Ekenäs badplats;56.172938283406;15.281051565847
Ekenäsvägen Ronneby;56.172773093645;15.286591882717;2048;7432233;Ekenäsvägen;56.172781801755;15.286527553845
Ekengård;56.086395962828;14.647639494245;4054;7432647;Ekengård;56.086441486126;14.647702456155
Ekeryd;56.233968398345;15.884534550284;1168;7431911;Ekeryd;56.233932433682;15.884583139184
Ekerydsvägen Jämjö;56.19997279149;15.854418873612;1150;7431897;Ekerydsvägen;56.199999732263;15.854386966764
E22 Jämjö;56.202800214731;15.858353714087;1165;7431908;E22 Jämjö;56.202782211159;15.858418418828
Ebbalycke;56.134040752253;14.606768081436;4087;7410259;Ebbalycke;56.134013223834;14.6067046769
Ebbamåla Ronneby;56.447649137674;15.027967057616;2137;7410260;Ebbamåla;56.447685506767;15.028031372331
Ebbemåla Olofström;56.365975966903;14.667845625949;6115;7432869;Ebbemåla;56.365958362085;14.667878653149
Edenryd;56.043503740313;14.509173581682;5047;7422146;Nymölla Kiosken;56.044088979848;14.473898133412
Edenryd Skolan;56.043896433846;14.517504914736;5046;7435431;Valjeviken;56.048998887144;14.556863996444
Edestad;56.218617871541;15.366629861705;2230;7423343;Edestad;56.21862696812;15.366662200519
Edestad kyrka;56.217038453739;15.359459296247;2231;7410266;Edestad kyrka;56.217074261522;15.359426847836
Edstorp;56.20820719247;15.051839666443;3165;7432576;Edstorp;56.208216580198;15.051904097792
Egilslunden Långö;56.174390926972;15.582860468048;1126;7431881;Egilslunden;56.174391001835;15.582909002372
Ekdungen;56.232327740576;14.527778460392;6066;7432827;Ekdungen;56.23229254374;14.527844226066
Ekeberg Karlskrona;56.198547559688;15.619306197108;1027;7431789;Ekeberg;56.198430358578;15.61901702848
Ekedalsvägen Jämjö;56.190900282671;15.82891030135;1146;7431895;Ekedalsvägen;56.190936188104;15.828926705559
Ekedalsvägen Lyckeby;56.193458927255;15.662274849771;1076;7431834;Ekedalsvägen;56.193458840459;15.662210667387
Ekekullen;56.311146493115;15.599722964292;1330;7432032;Ekekullen;56.311110576036;15.599723407833
Ekenäs badplats Ronneby;56.172992852848;15.28121163127;2049;7423355;Ekenäs badplats;56.172938283406;15.281051565847
Ekenäsvägen Ronneby;56.172773093645;15.286591882717;2048;7432233;Ekenäsvägen;56.172781801755;15.286527553845
Ekengård;56.086395962828;14.647639494245;4054;7432647;Ekengård;56.086441486126;14.647702456155
Ekeryd;56.233968398345;15.884534550284;1168;7431911;Ekeryd;56.233932433682;15.884583139184
Ekerydsvägen Jämjö;56.19997279149;15.854418873612;1150;7431897;Ekerydsvägen;56.199999732263;15.854386966764
Eket;56.197423323229;15.323504659725;2103;7432280;Eket;56.197450516893;15.323568953775
Ekhagsvägen Olofström;56.27556653234;14.541818287445;6023;7432788;Ekhagsvägen;56.275549454617;14.541899673481
Ekholmen Karlskrona;56.163837008198;15.572523969752;1119;7431874;Ekholmen;56.163863602564;15.572346988254
Ekliden Karlskrona;56.199331976833;15.609700546757;1023;7431785;Ekliden;56.199135102403;15.610152885658
Ekliden Sölvesborg;56.103152853403;14.668543372102;4058;7432650;Ekliden;56.103162153392;14.66857531838
Eklunda;56.254666403198;16.012339384789;1175;7431917;Eklunda;56.254711191367;16.012404468494
Elevhemsvägen;56.214664665891;15.266426863999;2302;7432436;Elevhemsvägen;56.214817481427;15.26645714061
Elineberg Rödeby;56.258510942388;15.61756177402;1305;7432012;Elineberg;56.258510990212;15.617594292176
Elisberg;56.2132838335;14.950090779752;3155;7410286;Elisberg;56.213301925788;14.950106636616
Elleholms trafikplats;56.180573678974;14.733632009454;3087;7432515;Elleholms trafikplats;56.180537512089;14.733600916342
Elovshult;56.614880751308;14.925468780613;7027;7436557;Elovshult;56.614880813591;14.925468991099
Elsebråne vsk;56.275765721922;14.862215672975;3186;7432595;Elsebråne vsk;56.275801428261;14.862182649866
Elsemåla;56.490665723889;14.99948820796;7041;7423594;Elsemåla;56.490665772501;14.999488405341
Elserås;56.482334802416;15.002781285898;7042;7436648;Elserås;56.482334850109;15.00278148228
Emmaboda Flygts;56.624847905714;15.555068978473;8111;7451916;Flygts;56.624811893095;15.555004322742
Emmaboda Glasverket;56.628712056563;15.530815672838;8110;7451903;Glasverket;56.628712205748;15.530864818826
Emmaboda Kempevägen;56.620980560797;15.561186982905;8112;7451920;Kempevägen;56.620962703996;15.561219948313
Emmaboda Samhall;56.623283224349;15.554036771427;8113;7451919;Samhall;56.623283264376;15.554037041117
Emmaboda station;56.629291642791;15.533011035156;8109;7451903;Glasverket;56.628712205748;15.530864818826
Emmeryd;56.269312223955;15.578530831094;1369;7432062;Emmeryd;56.269312136033;15.578482654889
Enkullen;56.23623763368;15.92256410058;1154;7431901;Enkullen;56.236237698969;15.922483764606
Erik Dahlbergsvägen;56.175519708036;14.864017163956;3181;7432590;Erik Dahlbergsvägen;56.17549266688;14.864001848207
Eringsboda;56.440329571921;15.364025224243;2178;7410297;Eringsboda;56.440356830244;15.364106201781
Eringsboda kyrka;56.437113494041;15.363754555503;2176;7423405;Eringsboda kyrka;56.437122733637;15.363819523891
Eringsboda Storegården;56.43724954374;15.359116600596;2175;7432341;Storegården;56.437285493498;15.359116409582
Eringsbodavägen;56.426615843889;15.53605442807;1351;7432049;Eringsbodavägen;56.426660768326;15.536054360946
Esketorp;56.187194689768;15.466972036853;2084;7432264;Esketorp;56.18723976404;15.467036278375
Eslöv;55.837288037441;13.304367055339;5024;7400260;Eslöv station;55.837715315291;13.305488951236
Espedalsskolan Ronneby;56.20602947562;15.263389940049;2092;7432271;Espedalsskolan;56.206002396216;15.26335828378
Ettebro Hasselstad;56.29543396338;15.200910367771;2121;7432293;Ettebro;56.295433823783;15.200878259763
Evaryd;56.215600983582;15.094648257473;2210;7432369;Evaryd;56.215564982862;15.094632971212
F17 Kallinge;56.258559717255;15.286333541235;2016;7410306;Kallinge F17;56.258550746609;15.286333861764
Fabbemåla vägskäl;56.285848960246;15.807830196989;1290;7432006;Fabbemåla vägskäl;56.285866920208;15.807830475954
Fabian Månssons väg Hasslö;56.112856230815;15.46968395013;1452;7400017;Hasslö Fabian Månsons väg;56.112882980423;15.469619628322
Fågelmara;56.260063606001;15.948792703689;1157;7401062;Fågelmara Felix;56.260099447892;15.94885767924
Fågelmara gård;56.232695863616;15.99748368135;1179;7431921;Fågelmara gård;56.232731825309;15.997451916761
Fågelmara skola;56.263869164288;15.950824041216;1172;7423373;Fågelmara skola;56.263869176279;15.950808202644
Fåglaslätt;56.212172810708;15.085799454758;2211;7432370;Fåglaslätt;56.212190972138;15.085831509367
Fågleboda vsk;56.379591798544;14.63695815066;6117;7432871;Fågleboda vsk;56.379592621065;14.637039202352
Falan;56.367111187332;15.6456661435;1393;7432080;Falan;56.367129202604;15.645698690709
Falkvik Bancks väg;56.042245646352;14.575760132928;4911;7435439;Bancks väg;56.042271966972;14.57569515781
Falkvik Bernalyckevägen;56.04147964063;14.562963759439;4904;7435426;Bernalyckevägen;56.041516389265;14.563042853477
Falkvik Falkviksgården;56.03889383421;14.569320479799;4908;7435435;Falkviksgården;56.038885521344;14.569384971449
Falkvik Lövängsvägen;56.045655879616;14.559363121741;4905;7435429;Lövängsvägen;56.045700962132;14.559377761492
Falkvik Nexövägen;56.036644105819;14.570692010784;4909;7435437;Nexövägen;56.036653589473;14.570739885369
Falkvik Sommarvägen;56.039082684625;14.559526977933;4913;7437716;Sommarvägen;56.039056419477;14.559592049432
Falkvik Taggsvampsvägen;56.037456668633;14.563061030426;4907;7435433;Taggsvampsvägen;56.037474165398;14.563012379439
Falkvik Valjeviken;56.049007028414;14.556783440784;4906;7435431;Valjeviken;56.048998887144;14.556863996444
Falkvik Vävaregatan;56.038267019362;14.577603530981;4910;7435438;Vävaregatan;56.038248923582;14.577588108514
Falkvikskyrkan;56.042249358366;14.574331893459;4917;7465458;Falkvikskyrkan;56.042352155734;14.574729824234
Fällö vägskäl;56.140083587998;15.348432705492;2250;7432402;Fällö vägskäl;56.140065557495;15.348417026377
F17 Kallinge;56.258559717255;15.286333541235;2016;7410306;Kallinge F17;56.258550746609;15.286333861764
Fabbemåla vägskäl;56.285848960246;15.807830196989;1290;7432006;Fabbemåla vägskäl;56.285866920208;15.807830475954
Fabian Månssons väg Hasslö;56.112856230815;15.46968395013;1452;7400017;Hasslö Fabian Månsons väg;56.112882980423;15.469619628322
Fågelmara;56.260063606001;15.948792703689;1157;7401062;Fågelmara Felix;56.260099447892;15.94885767924
Fågelmara gård;56.232695863616;15.99748368135;1179;7431921;Fågelmara gård;56.232731825309;15.997451916761
Fågelmara skola;56.263869164288;15.950824041216;1172;7423373;Fågelmara skola;56.263869176279;15.950808202644
Fåglaslätt;56.212172810708;15.085799454758;2211;7432370;Fåglaslätt;56.212190972138;15.085831509367
Fågleboda vsk;56.379591798544;14.63695815066;6117;7432871;Fågleboda vsk;56.379592621065;14.637039202352
Falan;56.367111187332;15.6456661435;1393;7432080;Falan;56.367129202604;15.645698690709
Falkvik Bancks väg;56.042245646352;14.575760132928;4911;7435439;Bancks väg;56.042271966972;14.57569515781
Falkvik Bernalyckevägen;56.04147964063;14.562963759439;4904;7435426;Bernalyckevägen;56.041516389265;14.563042853477
Falkvik Falkviksgården;56.03889383421;14.569320479799;4908;7435435;Falkviksgården;56.038885521344;14.569384971449
Falkvik Lövängsvägen;56.045655879616;14.559363121741;4905;7435429;Lövängsvägen;56.045700962132;14.559377761492
Falkvik Nexövägen;56.036644105819;14.570692010784;4909;7435437;Nexövägen;56.036653589473;14.570739885369
Falkvik Sommarvägen;56.039082684625;14.559526977933;4913;7437716;Sommarvägen;56.039056419477;14.559592049432
Falkvik Taggsvampsvägen;56.037456668633;14.563061030426;4907;7435433;Taggsvampsvägen;56.037474165398;14.563012379439
Falkvik Valjeviken;56.049007028414;14.556783440784;4906;7435431;Valjeviken;56.048998887144;14.556863996444
Falkvik Vävaregatan;56.038267019362;14.577603530981;4910;7435438;Vävaregatan;56.038248923582;14.577588108514
Falkvikskyrkan;56.042249358366;14.574331893459;4917;7465458;Falkvikskyrkan;56.042352155734;14.574729824234
Fällö vägskäl;56.140083587998;15.348432705492;2250;7432402;Fällö vägskäl;56.140065557495;15.348417026377
Fällöstrand;56.147434083531;15.342247626525;2264;7432414;Fällöstrand;56.147407012409;15.342215967302
Fanjunkarevägen Kallinge;56.250434703588;15.282749412918;2014;7432204;Fanjunkarevägen;56.250543775313;15.283054633191
Farabol;56.428029396403;14.570314309572;6102;7410317;Farabol;56.428075164851;14.570394009508
Färjeterminalen Verkö;56.164768757906;15.630834099577;1486;7422976;Verkö färjeterminal;56.164768651306;15.630769957767
Färmanstorp;56.176657455369;15.489767435422;2099;7444719;Färmanstorp;56.17670251561;15.489831688693
Färmanstorpsvägen Nättraby;56.185133879505;15.499779135096;1428;7432107;Färmanstorpsvägen;56.185169715046;15.499746862685
Figgamålavägen;56.356972230109;15.645935244038;1392;7432079;Figgamålavägen;56.35698117966;15.645903112651
Fiskareby Backaryd;56.315009018821;15.178526926999;2123;7432295;Fiskareby;56.314991407372;15.178592045759
Fisktorget brygga Karlskrona;56.162331848486;15.579309099931;1901;7420700;Karlskrona Fisktorget;56.162349737257;15.579277037382
Fisktorget Karlskrona;56.161919726376;15.579858753736;1096;7420700;Karlskrona Fisktorget;56.162349737257;15.579277037382
Fjärdsjömåla;56.338638983959;15.740714490987;1323;7410344;Fjärdsjömåla;56.338656960447;15.740730900954
Flisevägen;56.245040378749;15.285661875079;2008;7400104;Kallinge torg;56.245076512724;15.285709971401
Flyborgstorpet;56.324434382828;14.502668963236;6075;7432834;Flyborgstorpet;56.324451893401;14.502619982656
Flyerydsvägen;56.257995602823;15.934553880673;1170;7431913;Flyerydsvägen;56.257959738586;15.934489516673
Flyetvägen;56.140936306425;15.894334877627;1201;7431941;Flyetvägen;56.140972183358;15.894367416223
Flygplatsen (Kallingev);56.253597998026;15.26854104688;2285;7432432;Ronneby flygplats Kallingev;56.253625440183;15.268653792283
Folkets park;56.663958748747;16.335219893541;8005;7422416;Kalmar Folkets Park;56.663811503174;16.336066211397
Förkärla kyrka;56.19728337004;15.433664815282;2113;7432287;Förkärla kyrka;56.19729215252;15.433600504608
Frälsegårdsvägen;56.204124893185;14.831459867209;3054;7432485;Frälsegårdsvägen;56.204160330923;14.831394639292
Framsta;56.662980625863;16.353748344922;8002;7422419;Kalmar Framsta;56.663016942143;16.353667681362
Frändatorp;56.112318797846;15.701991621778;1240;7431975;Frändatorp;56.112309845762;15.702056191565
Fridafors Kyrkhultsvägen;56.407881170013;14.655935371858;7064;7401455;Fridafors Kyrkhultsvägen;56.407978376434;14.65672637252
Fridhem;56.782863843171;14.890418902367;7047;7435480;Fridhem;56.782863917081;14.890419137088
Fridhem Tingsryd;56.40764475522;14.93562348978;7106;7416954;Fridhem Tingsryd;56.407644799216;14.935623666027
Fridhemsgatan Karlshamn;56.186239920581;14.856490781634;3117;7432537;Fridhemsgatan;56.186214240912;14.856652597952
Fridlevstad;56.270910113865;15.542011406211;1373;7410377;Fridlevstad;56.270946005074;15.541995255845
Froarpsvägen;56.209179739187;14.838100095962;3184;7432593;Froarpsvägen;56.209152322637;14.838036451615
Fur;56.464634205649;15.593001714091;1355;7410387;Fur;56.464490345766;15.592889224131
Furs Sjukhus;56.475733776078;15.592712295581;1357;7424854;Fur sjukhus;56.475715756617;15.592663977199
Furulundskolan Sölvesborg;56.055519014654;14.580971659246;4113;7432695;Furulundskolan;56.055527221732;14.580891192152
Furumovägen;56.107010958869;14.684791896689;4069;7432660;Furumovägen;56.106993607569;14.684856774371
Ga Riksvägen Lyckeby;56.191431088524;15.663893158633;1077;7431835;Ga Riksvägen;56.19139507826;15.663829112835
Gäddeviksås vsk;56.384314702279;14.902142338951;7098;7416971;Gäddeviksås vägskäl;56.38464899763;14.902409807394
Galgabacken;56.202604364248;14.98037846408;3157;7432570;Galgabacken;56.20263987184;14.980313396662
Galgamarken Karlskrona;56.178650767187;15.59467055547;1120;7431875;Galgamarken;56.178632737996;15.594638688042
Galgamarkstrappan Karlskrona;56.17755486734;15.594547773217;1135;7431888;Galgamarkstrappan;56.17755502046;15.594644617341
Galleryda vsk;56.192091360298;14.695342916191;3068;7432497;Galleryda vsk;56.192056200838;14.695424577607
Galtsjövägen;56.386648119116;15.02908207949;2143;7432312;Galtsjövägen;56.386621419215;15.02911518769
Gamla affären;56.192302934197;14.613907228385;4136;7432714;Gamla affären;56.192285016466;14.613907875696
Gamla Bössan;56.534615003405;15.606211942475;8056;7414168;Gamla Bössan;56.534470193783;15.605497866453
Gamla Riksvägen Bräkne Hoby;56.222747922187;15.116472222478;2201;7432362;Gamla Riksvägen;56.222783586855;15.11642338856
Gamla torg Olofström;56.278038332786;14.521926768206;6003;7432772;Gamla torg;56.278038724981;14.521959146109
Gammalstorp;56.104013178695;14.618727418961;4081;7410408;Gammalstorp;56.104040144811;14.618726659098
Gångbrogatan Ronneby;56.208569284455;15.281692429568;2001;7432195;Gångbrogatan;56.208596229697;15.281692252973
Gängletorp;56.167618289396;15.747042612476;1231;7425942;Gängletorp;56.167663146163;15.746978415891
Gärestad;56.197102893745;15.331209123693;2104;7410501;Gärestad;56.197120607339;15.331144663228
Garpahamnen Hasslö;56.102728354951;15.474079128328;1447;7410414;Hasslö Garpahamnen;56.102728335076;15.474079337349
Genvägen;56.206479952582;15.001517358367;3159;7432572;Genvägen;56.206461904479;15.00150177163
Getabjär;56.031329089291;14.729048164689;4020;7432621;Getabjär;56.031311419609;14.729080809691
Getabron;56.291530170194;14.856626812911;3108;7432528;Getabron;56.291566124714;14.856626067125
Gillabro Karlshamn;56.20317087501;14.786657801236;3060;7432491;Gillabro Karlshamn;56.203170639029;14.786625699419
Ga Riksvägen Lyckeby;56.191431088524;15.663893158633;1077;7431835;Ga Riksvägen;56.19139507826;15.663829112835
Gäddeviksås vsk;56.384314702279;14.902142338951;7098;7416971;Gäddeviksås vägskäl;56.38464899763;14.902409807394
Galgabacken;56.202604364248;14.98037846408;3157;7432570;Galgabacken;56.20263987184;14.980313396662
Galgamarken Karlskrona;56.178650767187;15.59467055547;1120;7431875;Galgamarken;56.178632737996;15.594638688042
Galgamarkstrappan Karlskrona;56.17755486734;15.594547773217;1135;7431888;Galgamarkstrappan;56.17755502046;15.594644617341
Galleryda vsk;56.192091360298;14.695342916191;3068;7432497;Galleryda vsk;56.192056200838;14.695424577607
Galtsjövägen;56.386648119116;15.02908207949;2143;7432312;Galtsjövägen;56.386621419215;15.02911518769
Gamla affären;56.192302934197;14.613907228385;4136;7432714;Gamla affären;56.192285016466;14.613907875696
Gamla Bössan;56.534615003405;15.606211942475;8056;7414168;Gamla Bössan;56.534470193783;15.605497866453
Gamla Riksvägen Bräkne Hoby;56.222747922187;15.116472222478;2201;7432362;Gamla Riksvägen;56.222783586855;15.11642338856
Gamla torg Olofström;56.278038332786;14.521926768206;6003;7432772;Gamla torg;56.278038724981;14.521959146109
Gammalstorp;56.104013178695;14.618727418961;4081;7410408;Gammalstorp;56.104040144811;14.618726659098
Gångbrogatan Ronneby;56.208569284455;15.281692429568;2001;7432195;Gångbrogatan;56.208596229697;15.281692252973
Gängletorp;56.167618289396;15.747042612476;1231;7425942;Gängletorp;56.167663146163;15.746978415891
Gärestad;56.197102893745;15.331209123693;2104;7410501;Gärestad;56.197120607339;15.331144663228
Garpahamnen Hasslö;56.102728354951;15.474079128328;1447;7410414;Hasslö Garpahamnen;56.102728335076;15.474079337349
Genvägen;56.206479952582;15.001517358367;3159;7432572;Genvägen;56.206461904479;15.00150177163
Getabjär;56.031329089291;14.729048164689;4020;7432621;Getabjär;56.031311419609;14.729080809691
Getabron;56.291530170194;14.856626812911;3108;7432528;Getabron;56.291566124714;14.856626067125
Gillabro Karlshamn;56.20317087501;14.786657801236;3060;7432491;Gillabro Karlshamn;56.203170639029;14.786625699419
Gillabro Karlskrona;56.25645611845;15.512504226638;1470;7432134;Gillabro Karlskrona;56.256420349744;15.512569270373
Gillaruna;56.233637993231;14.574597836217;6042;7432806;Gillaruna;56.233664657255;14.574564824512
Giserydsvägen;56.273814621129;15.759243134985;1288;7432004;Giserydsvägen;56.273823599486;15.759243394201
Gisslevik;56.106156468644;15.816067662626;1214;7431953;Gisslevik;56.106156443726;15.816019717078
Gitterås;56.447239544828;15.292694580594;2182;7432345;Gitterås;56.447266450253;15.292678226643
Gnistan;56.177720549643;15.464044631974;2085;7432265;Gnistan;56.17771160523;15.464061028852
Gö vändplats;56.128709255431;15.31238536373;2258;7410507;Gö vändplats;56.128700200887;15.312369583587
Göholm;56.160739667818;15.336293226491;2263;7432413;Göholm;56.160766482002;15.336260903343
Gökalv;56.134462649594;15.311491357791;2256;7432407;Gökalv;56.134444679475;15.311491774148
Göksjöholm;56.312597823448;15.694934797559;1319;7432023;Göksjöholm;56.312579822173;15.694886639123
Golfbanan Almö;56.157079072615;15.450307833844;2088;7432268;Golfbanan;56.157105819253;15.450243426257
Göljahult;56.438469942864;15.244031811159;2185;7410509;Göljahult;56.438433907716;15.244000137244
Gonarps Drögsperydsvägen;56.18778800819;14.510640095887;5076;7414607;Gonarp Drögsperydsvägen;56.187832949642;14.510638657863
Göteborg C;57.708474458451;11.972952363701;9951;7400002;Göteborg Centralstation;57.708895111187;11.973479390334
Götgatan Ronneby;56.20713436458;15.273767838439;2044;7425866;Ronneby Götgatan;56.207125595589;15.273816491733
Gövägen;56.13993270239;15.341694559371;2252;7410819;Korsanäs Gövägen;56.139950534012;15.341662364043
Granholmen;56.309330760338;15.609782250096;1329;7432031;Granholmen;56.309330714654;15.609750187849
Granitvägen Nättraby;56.193495688327;15.534538096574;1420;7432100;Granitvägen;56.19351350044;15.534473767216
Granitvägen Rödeby;56.270047397566;15.620829856991;1308;7432014;Granitvägen;56.270011377521;15.620765719881
Granitvägen Sölvesborg;56.142538050617;14.605892104357;4135;7432713;Granitvägen Sölvesborg;56.14253871021;14.605956513962
Granö;56.439217676718;14.675530870749;7060;7436482;Granö;56.438073134169;14.675094845165
Gränum skola;56.228746661752;14.604197483209;6038;7425051;Gränum skola;56.228747020546;14.604229819335
Gränum Stationsvägen;56.21373973764;14.585100119748;6016;7410468;Gränum Stationsvägen väg 121;56.213739146507;14.585035760021
Gravfältet Almö;56.169920540953;15.462455892442;2086;7432266;Gravfältet;56.169893768151;15.462520739184
Grimsmåla;56.323979513058;14.874344999415;3111;7432531;Grimsmåla;56.323944119302;14.874410670797
Gröna huset;56.218703085621;15.863920053151;1166;7431909;Gröna huset;56.218676130523;15.863920296035
Grönadal Nättraby;56.18659482248;15.509607752569;1426;7432105;Grönadal;56.186630621852;15.509559384905
Grönadalsvägen Nättraby;56.184626437517;15.505258658865;1427;7432106;Grönadalsvägen;56.184644704401;15.505387573949
Grönadalsvägen Ronneby;56.40797926272;15.397623888679;2280;7432427;Grönadalsvägen;56.407961538897;15.397689105464
Gullaberg Karlskrona;56.19098935798;15.621855640484;1069;7431828;Gullaberg;56.190980510031;15.621952567206
Gullbergslyckan;56.165524874941;14.878475631361;3131;7432550;Gullbergslyckan;56.165542370264;14.878410944467
Gullberna Park Karlskrona;56.191485231644;15.635705426083;1110;7431866;Gullberna Park;56.191449207482;15.63564140208
Gullberna station Karlskrona;56.192017455125;15.624733932105;1106;7431863;Gullberna station;56.191432186938;15.623722188297
Gullholma;56.183967495619;15.940973933414;1194;7431935;Gullholma;56.183949480091;15.94100637268
Gummagölsvägen;56.416481317458;15.03454992492;2147;7432316;Gummagölsvägen;56.416472075024;15.034501694173
Gundlatorp;56.211121640093;15.065964418581;3166;7432577;Gundlatorp;56.211086118924;15.06602972607
Gungvala;56.23345182436;14.805881674245;3020;7410486;Gungvala;56.233415416767;14.805818247543
Gunnar Torhamns väg Lyckeby;56.208035338344;15.654936652778;1051;7431810;Gunnar Torhamns väg;56.207999365607;15.654904815569
Gunnerskulla;56.39233363774;15.171134656776;2191;7432353;Gunnerskulla;56.392369755085;15.1711666425
Gustavsborg Karlshamn;56.178381058298;14.855316137583;3008;7432451;Gustavsborg;56.178389440878;14.85523554033
Gustavstorp skolan;56.191326676897;14.682285125617;3069;7432498;Gustavstorp skolan;56.191308314467;14.68223743847
Gyngamåla vsk;56.328309594054;14.831303737356;3098;7432522;Gyngamåla vsk;56.32828269714;14.831304572904
Häcken;56.226234762756;15.870734721636;1167;7431910;Häcken;56.226216806443;15.870702732869
Hagalund Stiby;56.028931865644;14.683816553232;4026;7432625;Hagalund;56.028931294597;14.683752469564
Häggdalavägen Kallinge;56.242887950556;15.277900788129;2011;7432201;Häggdalavägen;56.242887683307;15.277836471441
Häggekullen;56.707874497224;14.930285498289;7099;7435531;Häggekullen;56.707838418891;14.930253908299
Hajvar Almö;56.140100444248;15.455097442901;2283;7432430;Hajvar;56.140145244064;15.45506507294
Håkantorp Gränum;56.234582358112;14.6253985163;6036;7432801;Håkantorp;56.234608724478;14.625333302201
Håkantorpsåsen;56.23780119482;14.638056609449;6034;7432799;Håkantorpsåsen;56.237784041898;14.638137876533
Hålabäck Gammalstorp;56.124622249631;14.61268941561;4085;7432674;Hålabäck;56.12463961839;14.612624630299
Hålan;56.112968362162;15.676624555856;1243;7431977;Hålan;56.112914653308;15.676817873265
Halda Svängsta;56.261235036717;14.768137710786;3039;7432474;Halda;56.261128674379;14.768302092454
Hallabro;56.389546538493;15.102369013071;2131;7401075;Hallabro;56.389484814251;15.102564638475
Hallagården Bräkne Hoby;56.219031074563;15.100790578207;2209;7432368;Hallagården Bräkne Hoby;56.219013494893;15.100855543679
Hallagården Hallabro;56.386421276733;15.107154075159;2130;7432301;Hallagården Hallabro;56.386457230102;15.107153610361
Hallandsboda;56.300888055857;14.733348947335;6112;7432867;Hallandsboda;56.300887680945;14.733300627292
Hallandsboda N;56.310917885312;14.719672403681;6113;7432868;Hallandsboda N;56.310917365297;14.719607917134
Hallarna Hasslö;56.113756907522;15.454485434347;1442;7410555;Hasslö Hallarna;56.113738973934;15.454501879516
Hallarnavägen Hasslö;56.111628400687;15.467347881321;1444;7432117;Hallarnavägen;56.111619489676;15.46738031612
Hallarum;56.172209484957;15.835000856254;1223;7431961;Hallarum;56.172254364074;15.835033364047
Hallarums backe;56.163364180681;15.830133455205;1222;7431960;Hallarums backe;56.163364148329;15.830198111464
Hällaryd skola;56.204678522226;14.947333783463;3154;7410648;Hällaryd skola;56.204571229657;14.947400776108
Häcken;56.226234762756;15.870734721636;1167;7431910;Häcken;56.226216806443;15.870702732869
Hagalund Stiby;56.028931865644;14.683816553232;4026;7432625;Hagalund;56.028931294597;14.683752469564
Häggdalavägen Kallinge;56.242887950556;15.277900788129;2011;7432201;Häggdalavägen;56.242887683307;15.277836471441
Häggekullen;56.707874497224;14.930285498289;7099;7435531;Häggekullen;56.707838418891;14.930253908299
Hajvar Almö;56.140100444248;15.455097442901;2283;7432430;Hajvar;56.140145244064;15.45506507294
Håkantorp Gränum;56.234582358112;14.6253985163;6036;7432801;Håkantorp;56.234608724478;14.625333302201
Håkantorpsåsen;56.23780119482;14.638056609449;6034;7432799;Håkantorpsåsen;56.237784041898;14.638137876533
Hålabäck Gammalstorp;56.124622249631;14.61268941561;4085;7432674;Hålabäck;56.12463961839;14.612624630299
Hålan;56.112968362162;15.676624555856;1243;7431977;Hålan;56.112914653308;15.676817873265
Halda Svängsta;56.261235036717;14.768137710786;3039;7432474;Halda;56.261128674379;14.768302092454
Hallabro;56.389546538493;15.102369013071;2131;7401075;Hallabro;56.389484814251;15.102564638475
Hallagården Bräkne Hoby;56.219031074563;15.100790578207;2209;7432368;Hallagården Bräkne Hoby;56.219013494893;15.100855543679
Hallagården Hallabro;56.386421276733;15.107154075159;2130;7432301;Hallagården Hallabro;56.386457230102;15.107153610361
Hallandsboda;56.300888055857;14.733348947335;6112;7432867;Hallandsboda;56.300887680945;14.733300627292
Hallandsboda N;56.310917885312;14.719672403681;6113;7432868;Hallandsboda N;56.310917365297;14.719607917134
Hallarna Hasslö;56.113756907522;15.454485434347;1442;7410555;Hasslö Hallarna;56.113738973934;15.454501879516
Hallarnavägen Hasslö;56.111628400687;15.467347881321;1444;7432117;Hallarnavägen;56.111619489676;15.46738031612
Hallarum;56.172209484957;15.835000856254;1223;7431961;Hallarum;56.172254364074;15.835033364047
Hallarums backe;56.163364180681;15.830133455205;1222;7431960;Hallarums backe;56.163364148329;15.830198111464
Hällaryd skola;56.204678522226;14.947333783463;3154;7410648;Hällaryd skola;56.204571229657;14.947400776108
Hällaryd vsk;56.199388891655;14.944809775975;3152;7410649;Hällaryd vägskäl;56.199343786541;14.944778704426
Hallaslättslyckan;56.156655549024;15.828938449555;1221;7431959;Hallaslättslyckan;56.156628590774;15.828906522783
Hälleviks hamn;56.012282274063;14.698040269687;4014;7400584;Hällevik hamn;56.012282283033;14.698040329645
Hälleviks skola;56.014005779096;14.690951843871;4013;7432615;Hälleviks skola;56.013996519376;14.690920101485
Hälsovägen Karlskrona;56.183317224892;15.603179872105;1074;7431832;Hälsovägen;56.183317160321;15.603147903736
Hammargärdet;56.306111417508;15.307481727987;2160;7432328;Hammargärdet;56.306147419705;15.307497622712
Hammarplast;56.531696469246;14.962520751363;7036;7436574;Växjövägen;56.531900735741;14.962175119497
Hammarsvägen Torhamnsvägen;56.132469110927;15.830854124064;1218;7431956;Hammarsvägen;56.132469092552;15.830822232239
Hamnvägen;56.122129887575;15.880625486737;1204;7431944;Hamnvägen;56.122120859832;15.880657906854
Handelshamnen, brygga Karlskrona;56.163278877331;15.596847475957;1921;7432125;Karlskrona Aspöfärjan;56.16308155337;15.597009738493
Hangarvägen Kallinge;56.254721086732;15.285449810857;2015;7432205;Hangarvägen;56.254685038174;15.285418230761
Hannetorp Karlshamn;56.203033448965;14.808349449354;3057;7432488;Hannetorp Karlshamn;56.203078635333;14.808380622729
Hannetorp Sölvesborg;56.034975954307;14.690667981615;4028;7432627;Hannetorp Sölvesborg;56.035011595435;14.690634931889
Hanö, brygga;56.00999876462;14.836386266272;4902;7401130;Hanö brygga;56.010017227429;14.836450016477
Hanöhus Hällevik;56.016340651844;14.701884768678;4015;7432616;Hanöhus;56.016340948225;14.701916892657
Hantverkshuset Olofström;56.272771586845;14.544299637143;6022;7432787;Hantverkshuset;56.272789105837;14.544250734235
Häradsvägen Bräkne-Hoby;56.229606367013;15.115897535164;2206;7432366;Häradsvägen Bräkne-Hoby;56.229606830691;15.115978314618
Häradsvägen Karlshamn;56.215164920129;14.833968104405;3016;7432456;Häradsvägen;56.215138389133;14.834017256929
Haraldsmåla;56.36412877348;15.294378930552;2167;7432334;Haraldsmåla;56.364111102395;15.294444101849
Harry Martinsons v Lyckeby;56.210487928131;15.655571596648;1050;7431809;Harry Martinsons v;56.210514822647;15.655539510448
Harstorp;56.241477293675;15.562825938298;1474;7432137;Harstorp;56.241441399744;15.562842532096
Hasselstad;56.272068725684;15.247508134716;2118;7425050;Hasselstad;56.272033108431;15.247573414241
Hasselstad skola;56.265038131544;15.249853829506;2117;7432290;Hasselstad skola;56.265038506465;15.249934710232
Hässlegården Lyckeby;56.225762912709;15.661686196012;1042;7431801;Hässlegården;56.225789942645;15.661766953752
Hässlegårdens daghem Lyckeby;56.221903054551;15.663377200288;1044;7431803;Hässlegårdens daghem;56.221930008359;15.663393471659
Hässleholm C;56.158431240048;13.76355363811;5026;7400006;Hässleholm Centralstation;56.157759735252;13.7631385464
Hässlehult Jämshög;56.247584920759;14.561857392029;6094;7432851;Hässlehult;56.247549056398;14.561858653747
Hässlehultvägen;56.246740865592;14.564562647518;6132;7432886;Hässlehultvägen;56.246768499937;14.56462637862
Hasslö;56.115233431175;15.475289580033;1450;7423345;Hasslö;56.115233240924;15.475225490669
Hasslö skola Hasslö;56.115096253732;15.47104687378;1451;7432122;Hasslö skola;56.115132159828;15.471046771384
Hasslöbron;56.131499450186;15.459325030486;2089;7424366;Hasslöbron;56.131535359102;15.459324916884
Hästaryd;56.19475156427;14.756176418803;3063;7432494;Hästaryd;56.194743162413;14.756241198283
Hästö;56.181950318132;15.625151827074;1091;7431849;Hästö;56.181914476026;15.625216650762
Hästö idrottsplats Hästö;56.181050692087;15.618119139933;1089;7431847;Hästö idrottsplats;56.181095609109;15.618135264046
Hästtorget Sölvesborg;56.051728012503;14.58362779415;4052;7432646;Hästtorget;56.051688462687;14.583259942176
Havsbadet Hällevik;56.016561818619;14.710569628861;4016;7432617;Havsbadet;56.016597745846;14.710568674988
Heaby Aspanvägen;56.172917466988;15.333761741818;2261;7432411;Heaby;56.172881294044;15.333697982293
Hejans vsk;56.361741095973;15.134706167137;2128;7432299;Hejans vsk;56.361732583076;15.134787406625
Helgövägen Listerby;56.185581510948;15.386188486931;2238;7432392;Helgövägen;56.185554619188;15.386205089906
Hellmansgården Listerby;56.190340741235;15.396670349358;2236;7432390;Hellmansgården;56.190349558156;15.3966221416
Hemmingsmåla vsk;56.29647582603;14.555067706246;6062;7432823;Hemmingsmåla vsk;56.296521102774;14.555098641725
Hemsjö;56.326864117996;14.701857947597;6107;7410572;Hemsjö;56.326837230275;14.701858857965
Hemsjöhult;56.321893675122;14.699431510117;6114;7423346;Hemsjöhult;56.32187562182;14.699416001896
Hermansmålavägen;56.353318378159;15.424687825263;1492;7432151;Hermansmålavägen;56.353354167652;15.424639171327
Herrgårdsvägen Hästö;56.181262643063;15.621692944525;1090;7431848;Herrgårdsvägen;56.181280568516;15.621676997222
Hildehult;56.286374406278;15.620637798945;1326;7432029;Hildehult;56.286356519511;15.620686577337
Hillerödsvägen Karlskrona;56.200268317659;15.611161845515;1024;7431786;Hillerödsvägen;56.200304155823;15.611113572599
Hinseberget Karlshamn;56.170766427045;14.859046198906;3005;7432448;Hinseberget;56.170785024043;14.859126359058
Hjälmserydsvägen;56.204050841164;15.939336396083;1185;7431927;Hjälmserydsv;56.204068822403;15.939304528355
Hjortahammars vsk;56.197567490416;15.470134657559;2081;7432261;Hjortahammars vsk;56.197575677402;15.469844828626
Hjorthålan;56.41489315957;15.208995015418;2187;7432349;Hjorthålan;56.414920287774;15.209027204168
Hjorthöjden Ronneby;56.201630221569;15.255605702253;2094;7432273;Hjorthöjden;56.201657525518;15.255686055802
Hjortseryd;56.38441749984;15.292423221637;2168;7410588;Hjortseryd;56.384399429853;15.292391303907
Högadals idrottsplats;56.186052182588;14.860119201384;3113;7432533;Högadals idrottsplats;56.186061801121;14.860199618008
Högklint;56.269234744611;15.590426351251;1368;7432061;Högklint;56.269243726269;15.590426545331
Högsk. Annebo Karlskrona;56.184955549521;15.605490259398;1071;7431796;Annebo;56.185924802693;15.605066711964
Högskolan Gräsvik;56.180632602035;15.592936670377;1927;7432188;Högskolan Gräsvik;56.180605508397;15.592856544416
Högskolan Östra Piren;56.165098934989;14.867266358376;3178;7432587;Högskolan Östra Piren;56.165099321166;14.867314761188
Högtofta skola;56.18361336562;14.610681862264;4095;7432683;Högtofta skola;56.183630896258;14.610633090645
Höjdaliden;56.23823320412;14.534307207388;6012;7432779;Höjdaliden;56.238196843878;14.534260120295
Hokadal;56.286744914941;14.853354363365;3107;7410602;Hokadal;56.286780869098;14.853353613299
Hökön Ållekulla vsk;0.0058704365823196;-2.0452751445467;;;not found;;
Hökön Bilverkstaden;56.475537512673;14.218496905254;5093;7414812;Hökön Bilverkstaden;56.475537197055;14.218464581593
Hökön Ljungbacken;56.467747826925;14.228882390875;5091;7422979;Hökön Ljungbacken;56.467765467062;14.228849327919
Hökön Sågverket;56.472445766043;14.22326728751;5092;7414814;Hökön Sågverket;56.472455255506;14.223299471167
Holjevägen;56.347158955979;14.578381687846;6054;7432817;Holjevägen;56.347140738498;14.578350049288
Holmsjö;56.42164453195;15.54208528157;1350;7423374;Holmsjö;56.422001009507;15.540786702912
Holmsjö station;56.421609402555;15.542458224517;1485;7423374;Holmsjö;56.422001009507;15.540786702912
Höör;55.937346368038;13.54237242598;5025;7400185;Höör station;55.937023132811;13.541398770026
Hörby;56.047685863036;14.659376008883;4036;7432632;Hörby;56.047481589896;14.659622857057
Horn Hasslö Kyrka;56.118428788987;15.481323065389;1453;7410554;Hasslö Horn kyrka;56.118392805099;15.481307503889
Hörnsjön;56.372171855849;14.591981750257;6050;7432814;Hörnsjön;56.372153643303;14.591950091837
Horsarydsvägen;56.20289321518;15.910250350542;1188;7431929;Horsarydsvägen;56.202929083326;15.910299073496
Horsarydsvägen Karlshamn;56.179123285945;14.842141786215;3077;7432505;Horsarydsvägen;56.179096620634;14.842174780985
Hörviks hamn;56.041499953564;14.770355068951;4024;7410694;Hörvik hamn;56.041499961719;14.770355147929
Hörviks skola;56.039734087735;14.756956779975;4023;7432624;Hörviks skola;56.039724844002;14.756925017651
Höryda;56.286514019726;15.508188539371;1374;7432066;Höryda;56.286495947103;15.508140472818
Hörydavägen;56.307548044378;15.580775255921;1359;7432054;Hörydavägen;56.307575110464;15.580839967176
Hosaby;56.041756940392;14.689637935464;4029;7410614;Hosaby;56.041738995424;14.689638519808
Hossmo;56.639087987503;16.22535203073;8055;7426056;Hossmo;56.639087912921;16.225384962514
Höst Vårvägen;56.164443402767;14.891234122084;3174;7432583;Höst Vårvägen;56.164470955986;14.891314074929
Höstvägen;56.16522365292;14.892294063493;3205;7458953;Höstvägen;56.165196493037;14.89226263994
Hotel Carlshamn;56.167044483832;14.863274938897;3168;7432579;Hotel Carlshamn;56.167044258205;14.863242870251
Hovmantorp;56.785977980105;15.140921328109;7081;7400511;Hovmantorp station;56.78584195424;15.1406622067
Hulta;56.483241619569;14.16376204087;5097;7414792;Hulta;56.483268654709;14.163760993027
Hulta Bro;56.200922927023;15.300276509546;2102;7432279;Hulta Bro;56.200950068245;15.300324679315
Hultaboda;56.229716152037;14.758219274502;3043;7432478;Hultaboda;56.229697954851;14.758187642722
Hultet Sölve;56.068778416144;14.60770389337;4078;7432668;Hultet;56.068814980909;14.607767047526
Hultvägen Karlskrona;56.19251481531;15.627067185516;1112;7431868;Hultvägen;56.192514851017;15.627099644043
Hunnamåla Belganet;56.398033690265;15.038793736148;2145;7432314;Hunnamåla;56.397997607868;15.038762260061
Hunshult;56.393535545268;14.383047043741;5080;7414840;Hunshult;56.393553209059;14.38301411143
Hunshults Juhlin;56.390774104603;14.396849401305;5079;7414842;Hunshult Juhlins;56.390747616616;14.39688288184
Hvidehus Ronneby;56.201947078188;15.280961124019;2041;7432227;Hvidehus;56.20194714911;15.28097742508
Idrottplatsen Ronneby;56.206170554766;15.275199188244;2043;7432229;Idrottplatsen;56.206233076467;15.27511794618
Idrottsplatsen Märserum;56.207386189618;15.016710367935;3161;7432573;Idrottsplatsen Märserum;56.207368759783;15.016791449671
IFÖ Sanitär Mörrum;56.184505598909;14.745891185476;3074;7400366;Mörrum station;56.186731573405;14.744670261227
Ihre vsk;56.342407383;14.890989034;3190;7432599;Ihre vsk;56.3423891051;14.890941117213
Ingärdahej;56.204122287443;14.795333790483;3059;7432490;Torarp Ingärdahej;56.204140012476;14.795301216723
Ingelstad C;56.745097665733;14.921149438667;7014;7400103;Ingelstad centrum;56.745097736304;14.921149669552
Ingelstad, kyrkan;56.740325965906;14.930903352979;7013;7420363;Ingelstad kyrkan;56.740627884941;14.9304063045
Inglingehög;56.750578100348;14.906406875534;7104;7435486;Inglingehög;56.750578879537;14.906505167817
Inlängan, brygga;56.050927226523;15.773621397427;1908;7421799;Inlängan brygga;56.050918212462;15.773637711124
Inlockahult;56.444356609471;14.680648191147;7059;7436536;Inlockahult;56.444556413343;14.68088567008
Intagsvägen Karlskrona;56.201420030464;15.624351181655;1028;7431790;Intagsvägen;56.201402011544;15.624319288132
IUC Olofström;56.283346894812;14.510752481934;6120;7432874;IUC;56.283311545901;14.510802220214
Idrottplatsen Ronneby;56.206170554766;15.275199188244;2043;7432229;Idrottplatsen;56.206233076467;15.27511794618
Idrottsplatsen Märserum;56.207386189618;15.016710367935;3161;7432573;Idrottsplatsen Märserum;56.207368759783;15.016791449671
IFÖ Sanitär Mörrum;56.184505598909;14.745891185476;3074;7400366;Mörrum station;56.186731573405;14.744670261227
Ihre vsk;56.342407383;14.890989034;3190;7432599;Ihre vsk;56.3423891051;14.890941117213
Ingärdahej;56.204122287443;14.795333790483;3059;7432490;Torarp Ingärdahej;56.204140012476;14.795301216723
Ingelstad C;56.745097665733;14.921149438667;7014;7400103;Ingelstad centrum;56.745097736304;14.921149669552
Ingelstad, kyrkan;56.740325965906;14.930903352979;7013;7420363;Ingelstad kyrkan;56.740627884941;14.9304063045
Inglingehög;56.750578100348;14.906406875534;7104;7435486;Inglingehög;56.750578879537;14.906505167817
Inlängan, brygga;56.050927226523;15.773621397427;1908;7421799;Inlängan brygga;56.050918212462;15.773637711124
Inlockahult;56.444356609471;14.680648191147;7059;7436536;Inlockahult;56.444556413343;14.68088567008
Intagsvägen Karlskrona;56.201420030464;15.624351181655;1028;7431790;Intagsvägen;56.201402011544;15.624319288132
IUC Olofström;56.283346894812;14.510752481934;6120;7432874;IUC;56.283311545901;14.510802220214
Jägarhyddan;56.252808879268;14.529774111871;6008;7432776;Jägarhyddan;56.252790643092;14.529742545584
Jämjö centrum;56.191976737419;15.835015618493;1147;7400333;Jämjö centrum Jämjöhallen;56.192012638359;15.835048137277
Jämshög Bygatan;56.240675648813;14.530758442732;6011;7400488;Jämshög Bygatan;56.240676033715;14.530790781181
Jämshögs skola;56.240470884824;14.525716802368;6096;7432853;Jämshögs skola;56.240444835857;14.525798409752
Jändelskolan Jämjö;56.187083461292;15.82827994909;1225;7431962;Jändelskolan;56.187074463998;15.82828021979
Janneberg Karlshamn;56.190294495688;14.84537309561;3011;7432453;Janneberg;56.190259101371;14.845438533707
Järavägen;56.201820289944;15.640766902919;1609;7432169;Järavägen;56.201784334533;15.64075119277
Järnavik;56.187497228361;15.077451912421;2215;7432374;Järnavik;56.1876228679;15.077433582145
Järnaviks brygga;56.181211494914;15.073094302852;2254;7432405;Järnaviks brygga;56.181220198399;15.07304598229
Järnsida;56.352790163956;16.052448672583;8096;7451727;Järnsida;56.352888409575;16.052724599583
Järnvallen Kallinge;56.248643208444;15.279628240387;2010;7432200;Järnvallen;56.248643491859;15.279692958625
Jätvägen;56.659560342575;14.915392982845;7020;7436546;Jätvägen;56.660081204985;14.915380914775
Jockarp;56.087240867162;14.606327349619;4079;7432669;Jockarp;56.08721302009;14.606231890109
Johannesberg Rödeby;56.261707051356;15.605443551162;1367;7432060;Johannesberg Rödeby;56.261725064825;15.60547597638
Johannesborg;56.666368979086;16.328012276869;8006;7452047;Johannesborg;56.666360310614;16.327947266723
Johannishus station;56.226780822773;15.42020687169;2226;7410712;Johannishus station;56.226798935638;15.420255270515
Jordgylet;56.275844540797;14.762398438918;3029;7432466;Jordgylet;56.275808799327;14.762415686461
Jössarinken Mörrum;56.188158400204;14.761397914283;3081;7432509;Jössarinken;56.188052171919;14.761578086105
Jägarhyddan;56.252808879268;14.529774111871;6008;7432776;Jägarhyddan;56.252790643092;14.529742545584
Jämjö centrum;56.191976737419;15.835015618493;1147;7400333;Jämjö centrum Jämjöhallen;56.192012638359;15.835048137277
Jämshög Bygatan;56.240675648813;14.530758442732;6011;7400488;Jämshög Bygatan;56.240676033715;14.530790781181
Jämshögs skola;56.240470884824;14.525716802368;6096;7432853;Jämshögs skola;56.240444835857;14.525798409752
Jändelskolan Jämjö;56.187083461292;15.82827994909;1225;7431962;Jändelskolan;56.187074463998;15.82828021979
Janneberg Karlshamn;56.190294495688;14.84537309561;3011;7432453;Janneberg;56.190259101371;14.845438533707
Järavägen;56.201820289944;15.640766902919;1609;7432169;Järavägen;56.201784334533;15.64075119277
Järnavik;56.187497228361;15.077451912421;2215;7432374;Järnavik;56.1876228679;15.077433582145
Järnaviks brygga;56.181211494914;15.073094302852;2254;7432405;Järnaviks brygga;56.181220198399;15.07304598229
Järnsida;56.352790163956;16.052448672583;8096;7451727;Järnsida;56.352888409575;16.052724599583
Järnvallen Kallinge;56.248643208444;15.279628240387;2010;7432200;Järnvallen;56.248643491859;15.279692958625
Jätvägen;56.659560342575;14.915392982845;7020;7436546;Jätvägen;56.660081204985;14.915380914775
Jockarp;56.087240867162;14.606327349619;4079;7432669;Jockarp;56.08721302009;14.606231890109
Johannesberg Rödeby;56.261707051356;15.605443551162;1367;7432060;Johannesberg Rödeby;56.261725064825;15.60547597638
Johannesborg;56.666368979086;16.328012276869;8006;7452047;Johannesborg;56.666360310614;16.327947266723
Johannishus station;56.226780822773;15.42020687169;2226;7410712;Johannishus station;56.226798935638;15.420255270515
Jordgylet;56.275844540797;14.762398438918;3029;7432466;Jordgylet;56.275808799327;14.762415686461
Jössarinken Mörrum;56.188158400204;14.761397914283;3081;7432509;Jössarinken;56.188052171919;14.761578086105
KA2;56.212754132922;15.601412663436;1429;7432108;KA2;56.212772034072;15.601380576988
Kalleberga skola;56.247444133535;15.29567879046;2150;7432318;Kalleberga skola;56.247453122173;15.29567886958
Källeboda;56.338673570945;14.575889091072;6055;7432818;Källeboda;56.338673470141;14.575873045825
Källeboda såg;56.333370827762;14.576431601556;6056;7432819;Källeboda såg;56.333379223906;14.576366779191
Kallinge kyrka Kallinge;56.241738496021;15.290706499991;2006;7424285;Kallinge kyrka;56.241774627414;15.290754597266
Kallinge skola Kallinge;56.244040064972;15.282723758612;2009;7423347;Kallinge skola;56.244166892491;15.28298029656
Kallinge torg;56.246024614501;15.286922812045;2007;7424391;Kockumsvägen Kallinge;56.246069796313;15.286986918933
Kallingevägen Tving;56.321889350274;15.443991861442;1382;7432072;Kallingevägen;56.321889456853;15.444024413618
Kalmar central;56.661409096099;16.361846597611;8001;7400020;Kalmar Centralstation;56.661282352103;16.360067594112
Kalvsviksvägen Uråsa by;56.694889274922;14.917725187472;7101;7435442;Kalvsviksvägen Uråsa by;56.694889342816;14.917725410231
Kåraboda skola;56.396447874974;14.582739087236;6103;7432859;Kåraboda skola;56.396492992882;14.582753971378
Kåranäs;56.60246622157;14.927581324482;7029;7436560;Kåranäs;56.602466282855;14.927581533119
Kararör;56.676763219915;14.919832344524;7107;7416974;Kararör;56.676726324754;14.919686603155
Karlsberg;56.145897822788;15.757951562149;1233;7431969;Karlsberg;56.145933725922;15.757951778563
Karlsgärde;56.205142540668;15.604031308658;1409;7432092;Karlsgärde;56.205142479472;15.603999324116
Karlshamn Centrum öst;56.170642128354;14.868660504697;3194;7440918;Centrum öst;56.170677823655;14.868627559174
Karlshamn Centrum väst;56.169209126882;14.860935881147;3195;7440991;Centrum väst;56.169182207766;14.860936663916
Karlshamn Citygallerian;56.170951325013;14.85973391997;3192;7470286;Citygallerian;56.170969551835;14.859765791923
Karlshamn Resecentrum;56.175789105844;14.867552870838;3001;7400073;Karlshamn station;56.17651117985;14.868018424315
Karlshamn Rosenkällan;56.164072197244;14.887202740102;3204;7458954;Rosenkällan;56.16408071652;14.887138275065
KA2;56.212754132922;15.601412663436;1429;7432108;KA2;56.212772034072;15.601380576988
Kalleberga skola;56.247444133535;15.29567879046;2150;7432318;Kalleberga skola;56.247453122173;15.29567886958
Källeboda;56.338673570945;14.575889091072;6055;7432818;Källeboda;56.338673470141;14.575873045825
Källeboda såg;56.333370827762;14.576431601556;6056;7432819;Källeboda såg;56.333379223906;14.576366779191
Kallinge kyrka Kallinge;56.241738496021;15.290706499991;2006;7424285;Kallinge kyrka;56.241774627414;15.290754597266
Kallinge skola Kallinge;56.244040064972;15.282723758612;2009;7423347;Kallinge skola;56.244166892491;15.28298029656
Kallinge torg;56.246024614501;15.286922812045;2007;7424391;Kockumsvägen Kallinge;56.246069796313;15.286986918933
Kallingevägen Tving;56.321889350274;15.443991861442;1382;7432072;Kallingevägen;56.321889456853;15.444024413618
Kalmar central;56.661409096099;16.361846597611;8001;7400020;Kalmar Centralstation;56.661282352103;16.360067594112
Kalvsviksvägen Uråsa by;56.694889274922;14.917725187472;7101;7435442;Kalvsviksvägen Uråsa by;56.694889342816;14.917725410231
Kåraboda skola;56.396447874974;14.582739087236;6103;7432859;Kåraboda skola;56.396492992882;14.582753971378
Kåranäs;56.60246622157;14.927581324482;7029;7436560;Kåranäs;56.602466282855;14.927581533119
Kararör;56.676763219915;14.919832344524;7107;7416974;Kararör;56.676726324754;14.919686603155
Karlsberg;56.145897822788;15.757951562149;1233;7431969;Karlsberg;56.145933725922;15.757951778563
Karlsgärde;56.205142540668;15.604031308658;1409;7432092;Karlsgärde;56.205142479472;15.603999324116
Karlshamn Centrum öst;56.170642128354;14.868660504697;3194;7440918;Centrum öst;56.170677823655;14.868627559174
Karlshamn Centrum väst;56.169209126882;14.860935881147;3195;7440991;Centrum väst;56.169182207766;14.860936663916
Karlshamn Citygallerian;56.170951325013;14.85973391997;3192;7470286;Citygallerian;56.170969551835;14.859765791923
Karlshamn Resecentrum;56.175789105844;14.867552870838;3001;7400073;Karlshamn station;56.17651117985;14.868018424315
Karlshamn Rosenkällan;56.164072197244;14.887202740102;3204;7458954;Rosenkällan;56.16408071652;14.887138275065
Karlshamn Sjukhuset huvudentre´;56.186835682118;14.851048331501;3033;7432469;Sjukhuset huvudentré;56.186799413146;14.851001038044
Karlshamn torget;56.170234879195;14.864710059352;3004;7410756;Karlshamn Torget;56.170199470482;14.864775444247
Karlshamn, brygga;56.167351653333;14.862333735199;3901;7420698;Karlshamn brygga;56.167396080927;14.862268375043
Karlskrona Amiralitetstorget;56.159064027885;15.584977227366;1619;7440917;Amiralitetstorget;56.159397087343;15.585410077651
Karlskrona C;56.16303529657;15.585887920054;1484;7423372;Karlskrona centrum;56.162989774334;15.585550414342
Karlskrona C/Blekingegatan;56.166607226753;15.584467045496;1600;7432160;Karlskrona C Blekingegat;56.166580154623;15.584403048672
Karlskrona Centrum;56.16303529657;15.585887920054;1601;7423372;Karlskrona centrum;56.162989774334;15.585550414342
Karlskrona Centrum Kronan;56.162764112407;15.584907667951;1599;7463018;Centrum Kronan;56.162808714847;15.584746693471
Karlskrona Centrum Kronan;56.162764112407;15.584907667951;1599;7463018;Centrum Kronan;56.162808714847;15.584746693471
Karlskrona Lokstallarna;56.168052008788;15.583814822692;1937;7437242;Lokstallarna;56.168015955572;15.583750875882
Karlskrona Wämöparken;56.178590455618;15.612672673689;1936;7432976;Wämöparken;56.178751596111;15.612350065695
Karlskronavägen Eringsboda;56.437316694866;15.367869820253;2177;7432342;Karlskronavägen;56.437316722772;15.367870051995
Karlstorp Kristianopel;56.255654240016;16.032931828286;1178;7431920;Karlstorp;56.255663271191;16.032899924851
Karpvägen Asarum;56.198069015658;14.848400887374;3120;7432540;Karpvägen;56.197915636206;14.848308171266
Kärrabo;56.37035511355;16.06638179373;8094;7451725;Kärrabo;56.370462446491;16.066593217319
Kärrabodavägen;56.431388707566;14.263879805395;5089;7414819;Kärrabodavägen;56.4313802252;14.263912684429
Kärrsjön;56.283956977558;14.759464698132;3030;7432467;Kärrsjön;56.283956882279;14.759448685438
Kärrtorpsvägen;56.220727273491;15.570066170267;1434;7432111;Kärrtorpsvägen;56.220709306384;15.570066517836
Kättilsmåla;56.276534009443;15.73636535356;1286;7410884;Kättilsmåla;56.276507037708;15.736317241168
Kättorp;56.242012214758;15.226720582446;2195;7432357;Kättorp;56.242030186042;15.22672049895
Käxelåkra;56.223778374432;15.904938696796;1152;7431899;Käxelåkra;56.223769561198;15.904713274651
Kemivägen Rödeby;56.261665011235;15.612882762854;1366;7432059;Kemivägen;56.261647073893;15.612899237289
Kestorp;56.278334195846;15.625148542848;1310;7410773;Kestorp;56.278370025878;15.625084049397
Killevägen Sturkö;56.102662802227;15.690495505614;1246;7431979;Killevägen;56.102779545522;15.690511471838
Klaipedaplatsen Karlskrona;56.161545768925;15.586636802866;1478;7423372;Karlskrona centrum;56.162989774334;15.585550414342
Klakebäck;56.199565743896;15.95053380754;1184;7431926;Klakebäck;56.199565690131;15.950566324972
Klakebäcksvägen Jämjö;56.193492202578;15.843715060279;1148;7431896;Klakebäcksvägen;56.193447272171;15.8437475112
Klosterplan Sölvesborg;56.054118935909;14.584707834361;4051;7432645;Klosterplan;56.054127144941;14.584627371184
Knalleborg;56.787691920663;14.885065223982;7078;7435478;Knalleborg;56.787691995051;14.88506545912
Knällsberg;56.44131182868;14.978500225686;7045;7424731;Knällsbergs vägskäl;56.441311873736;14.978500412633
Knösö Lyckeby;56.189060772343;15.664481757349;1114;7431869;Knösö;56.189060759884;15.664482006627
Knösövägen Lyckeby;56.196118029286;15.662893143301;1075;7431833;Knösövägen;56.196153885814;15.662844931765
Knut Hahn skolhpl;56.203549921196;15.273543596712;2235;7432389;Knut Hahn skolhpl;56.203531963006;15.273544035
Knut Hahnsskolan Ronneby;56.204513503616;15.272063967831;2073;7432255;Knut Hahnsskolan;56.204153656027;15.271924145013
Knuts Gård;56.229859080467;14.587538178796;6040;7432804;Knuts Gård;56.229841645894;14.5875872034
Knuts Gård Hasslö;56.10886401876;15.471309991765;1445;7432118;Knuts Gård;56.10884590721;15.471262140006
Knutsberg;56.172605365323;14.827621833508;3078;7432506;Knutsberg;56.172603349168;14.827364399994
Kölja;56.247016101574;15.213740383719;2196;7432358;Kölja;56.246998152206;15.213740847715
Kolleviksvägen;56.169145093555;14.889399766499;3145;7432562;Kolleviksvägen;56.169127391083;14.88943251105
Kolshult;56.42415437822;15.302550822329;2171;7432337;Kolshult;56.42413644642;15.302551282024
Kolshultakvarn;56.403765076044;15.297458970423;2312;7432446;Kolshultakvarn;56.403729247912;15.297475864817
Kommungården Kallinge;56.258368555007;15.307538129086;2153;7432321;Kommungården;56.258368303973;15.30747379248
Konungshamn;56.150144958988;15.902320408042;1199;7410812;Konungshamn;56.150127011204;15.902272380104
Köpe vsk;56.135501038493;15.338273869717;2253;7432404;Köpe vsk;56.13553719579;15.338337956447
Köpegård;56.203105871905;15.03150909958;3164;7432575;Köpegård;56.203150989493;15.031540568204
Köpenhamn H;55.67236897049;12.564960578808;9952;8600626;Köbenhavn H;55.67305735304;12.564473828078
Köpenhamn Lufth/Kastrup;55.629563787453;12.649320378248;9954;8600858;Köbenhavns Lufthavn;55.629571743745;12.648922198604
Köppersmåla;56.448997205763;14.682327301697;7058;7436480;Kuppersmåla;56.449301670889;14.682221167493
Kopprarp;56.199067942311;14.93361981259;3151;7432568;Kopprarp;56.199086263114;14.933667867756
Korpadalsskolan Asarum;56.206085784919;14.851407751366;3122;7410818;Asarum Korpadalsskolan;56.20593253305;14.851331117242
Korsanäs;56.140673356009;15.342811652803;2251;7432403;Korsanäs;56.140673226383;15.342779673766
Korsliden;56.207294810135;14.988818274705;3158;7432571;Korsliden;56.207276441791;14.988754355553
Kräbbleboda;56.443239128608;14.241184156575;5090;7414817;Kräbbleboda;56.443221677837;14.241217420973
Kråketorp Gustavstorpsvägen;56.189716914944;14.713113704692;3067;7432496;Kråketorp;56.18969841962;14.713049905194
Kristanopel vsk;56.262028760665;16.038827165221;1463;7459480;Kristanopel vsk;56.262028601184;16.038908160829
Kristianopel;56.257776465224;16.041108689071;1163;7410826;Kristianopel;56.257803338035;16.041141436462
Kristianstad C;56.031623508781;14.152016515992;5028;7400200;Kristianstad Centralstation;56.031667325431;14.151260599143
Kristianstad resecentrum;56.029426956451;14.160388193517;5001;7410827;Kristianstad gamla busstation;56.029612334776;14.160139652651
Krogstorp;56.043356846928;14.49696679356;5048;7422146;Nymölla Kiosken;56.044088979848;14.473898133412
Krokås hamn;56.049501164716;14.756354605229;4025;7410834;Krokås hamn;56.049501175082;14.75635468371
Krokebro;56.248228438756;15.712639913436;1282;7431999;Krokebro;56.248201503084;15.712656371538
Krokvik;56.766292613703;14.896284422337;7077;7435482;Krokvik;56.766292686531;14.896284654845
Kronotorp Lyckeby;56.196391042647;15.666017312158;1034;7431794;Kronotorp;56.196606446978;15.665904011136
Kuggeboda;56.14031834059;15.366076175161;2248;7410838;Kuggeboda;56.140309464384;15.366108643769
Kuleryd;56.346021818767;15.57579368259;1336;7432036;Kuleryd;56.346003808259;15.575761696126
Kulla Högtofta;56.171695766321;14.606173899155;4093;7432681;Kulla;56.171731721037;14.606172862992
Kullagården Kuggeboda;56.156764417808;15.363989192194;2244;7432397;Kullagården;56.156737467962;15.363989698967
Kullåkra;56.199842701041;15.089091723317;2213;7432372;Kullåkra;56.199815958283;15.08912460555
Kullemåla;56.342530683515;14.786016154031;3096;7432521;Kullemåla;56.342557401401;14.78598324477
Kungastenen;56.1081886654;15.644688781709;1256;7431986;Kungastenen;56.108206603219;15.644688945526
Kungsgatan Ronneby;56.210967781214;15.277598557671;2021;7432209;Kungsgatan;56.211003845283;15.277630483573
Kungsmarken centrum Karlskrona;56.19427051792;15.623933983867;1068;7431827;Kungsmarken centrum;56.194306573639;15.624030706113
Kungsmarken Karlskrona;56.195560719555;15.615937860294;1065;7431824;Kungsmarken;56.195372158631;15.615971253504
Kungsmarken panncentral Karlskrona;56.197547428613;15.623145173043;1067;7431826;Kungsmarken panncentral;56.197538532915;15.623209897562
Kungsmarksvägen Karlskrona;56.197071842716;15.617444671845;1066;7431825;Kungsmarksvägen;56.197080764441;15.617412651329
Kungsplan Hoglands Park;56.16502078428;15.586262856772;1929;7420510;Karlskrona Kungsplan;56.164787407738;15.586344905289
Kungsplan Karlskrona;56.165623569276;15.586854975954;1001;7420510;Karlskrona Kungsplan;56.164787407738;15.586344905289
Kvarnagårdsvägen;56.361964200473;15.576571166256;1338;7432038;Kvarnagårdsvägen;56.361991275465;15.576635970421
Kvarnamåla;56.586617568053;14.933043308093;7030;7436562;Kvarnamåla;56.586626264557;14.932994488888
Kvarnen Sturkö;56.112982408159;15.681543259283;1242;7400469;Sturkö Kvarnen;56.113009261954;15.681479120774
Kvarngården Ingelstad;56.743240978678;14.925278890748;7079;7435427;Kvarngården Ingelstad;56.743241048958;14.925279121632
Kvarngatan Karlskrona;56.172716113292;15.590533472282;1134;7431887;Kvarngatan;56.172698054153;15.590485511351
Kylinge Pukaviksvägen;56.190244986192;14.612859608752;4100;7410864;Kylinge väg 121;56.190298745448;14.612841922867
Kylinge vsk;56.188701828787;14.61303636834;4120;7423349;Kylinge vägskäl;56.188684066059;14.613053117466
Kyrkan Nättraby;56.201296826224;15.537092974966;1415;7425541;Nättraby kyrkan;56.201242723276;15.536996916093
Kyrkan Svängsta;56.258299067442;14.77362282117;3025;7432463;Kyrkan Svängsta;56.258389572295;14.773701193163
Kyrkekullen;56.676817675766;14.919912637681;7019;7416974;Kararör;56.676726324754;14.919686603155
Kyrkhult;56.357125281514;14.587153582249;6051;7400548;Kyrkhult;56.357106748465;14.587089588113
Kyrkhults skola;56.351598167286;14.585890274291;6106;7432862;Kyrkhults skola;56.351616981177;14.585970679522
Kyrkogården Karlskrona;56.181257712551;15.601451634916;1073;7431831;Kyrkogården;56.181248612935;15.601387510139
Kyrkovägen;56.241603923343;14.537179458601;6128;7432882;Kyrkovägen;56.241640221162;14.537210611092
Kyrkvägen Gammalstorp;56.107382679649;14.619797014431;4082;7432671;Kyrkvägen;56.107283473987;14.619751918119
Lagmansgatan Karlskrona;56.176858097156;15.581413145074;1125;7431880;Lagmansgatan;56.176903048586;15.581445319151
Lallerstedts gata Karlskrona;56.195480407138;15.634705059755;1109;7431865;Lallerstedts gata;56.195489310319;15.634656938455
Landbrogatan Karlskrona;56.165090016624;15.584797712678;1107;7420510;Karlskrona Kungsplan;56.164787407738;15.586344905289
Landsvägsgatan Karlskrona;56.172011586181;15.588251360672;1013;7431777;Landsvägsgatan;56.171975620932;15.588235700774
Långemålavägen;56.346082330341;15.648908107109;1391;7432078;Långemålavägen;56.346118201026;15.648859702089
Långenabben;56.143090422316;15.89620588239;1200;7431940;Långenabben;56.143126369279;15.896141903601
Långö;56.179407225783;15.580593136749;1124;7431879;Långö;56.179416253932;15.580625522828
Långören, brygga;56.064528284575;15.820552285496;1906;7421798;Långören brygga;56.064573160427;15.820504406641
Långsjöryd;56.378337533771;15.170396361084;2192;7432354;Långsjöryd;56.378355689472;15.170428631588
Länsmansvägen Jämshög;56.244811500011;14.528556165766;6010;7432778;Jämshög Länsmansvägen;56.24478461702;14.528557154492
Lantmannavägen;56.867976688108;14.830472023071;7004;7435062;Lantmannavägen;56.86797676834;14.830472267716
Lassabo;56.023807787914;14.718415677277;4019;7432620;Lassabo;56.023852412562;14.718382412172
Ledja;56.4161112393;15.661159436113;1400;7410909;Ledja;56.416093352099;15.661208376351
Lejonbacken;56.112228244446;15.612154054709;1258;7431988;Lejonbacken;56.112201354127;15.612202645898
Leråkra;56.192252145372;15.352482854206;2107;7432282;Leråkra;56.192260474013;15.352305771633
Lessebo;56.750036579727;15.258739413535;7082;7400235;Lessebo station;56.749535059943;15.259041183989
Levalunda;56.206367372626;15.341971257544;2232;7432386;Levalunda;56.206412337207;15.341987028017
Lidhem Växjö;56.843323803687;14.859479343954;7008;7435470;Lidhem Växjö;56.843323881651;14.859479586274
Lievägen Ronneby;56.207803174613;15.264396191593;2091;7432270;Lievägen;56.207803460977;15.264460833132
Lilla Målen;56.403370108997;16.043121872711;8092;7451769;Lilla Målen;56.403288891709;16.043332239156
Lagmansgatan Karlskrona;56.176858097156;15.581413145074;1125;7431880;Lagmansgatan;56.176903048586;15.581445319151
Lallerstedts gata Karlskrona;56.195480407138;15.634705059755;1109;7431865;Lallerstedts gata;56.195489310319;15.634656938455
Landbrogatan Karlskrona;56.165090016624;15.584797712678;1107;7420510;Karlskrona Kungsplan;56.164787407738;15.586344905289
Landsvägsgatan Karlskrona;56.172011586181;15.588251360672;1013;7431777;Landsvägsgatan;56.171975620932;15.588235700774
Långemålavägen;56.346082330341;15.648908107109;1391;7432078;Långemålavägen;56.346118201026;15.648859702089
Långenabben;56.143090422316;15.89620588239;1200;7431940;Långenabben;56.143126369279;15.896141903601
Långö;56.179407225783;15.580593136749;1124;7431879;Långö;56.179416253932;15.580625522828
Långören, brygga;56.064528284575;15.820552285496;1906;7421798;Långören brygga;56.064573160427;15.820504406641
Långsjöryd;56.378337533771;15.170396361084;2192;7432354;Långsjöryd;56.378355689472;15.170428631588
Länsmansvägen Jämshög;56.244811500011;14.528556165766;6010;7432778;Jämshög Länsmansvägen;56.24478461702;14.528557154492
Lantmannavägen;56.867976688108;14.830472023071;7004;7435062;Lantmannavägen;56.86797676834;14.830472267716
Lassabo;56.023807787914;14.718415677277;4019;7432620;Lassabo;56.023852412562;14.718382412172
Ledja;56.4161112393;15.661159436113;1400;7410909;Ledja;56.416093352099;15.661208376351
Lejonbacken;56.112228244446;15.612154054709;1258;7431988;Lejonbacken;56.112201354127;15.612202645898
Leråkra;56.192252145372;15.352482854206;2107;7432282;Leråkra;56.192260474013;15.352305771633
Lessebo;56.750036579727;15.258739413535;7082;7400235;Lessebo station;56.749535059943;15.259041183989
Levalunda;56.206367372626;15.341971257544;2232;7432386;Levalunda;56.206412337207;15.341987028017
Lidhem Växjö;56.843323803687;14.859479343954;7008;7435470;Lidhem Växjö;56.843323881651;14.859479586274
Lievägen Ronneby;56.207803174613;15.264396191593;2091;7432270;Lievägen;56.207803460977;15.264460833132
Lilla Målen;56.403370108997;16.043121872711;8092;7451769;Lilla Målen;56.403288891709;16.043332239156
Lillegård;56.834570914465;14.864647943227;7009;7435472;Lillegård;56.834570991842;14.864648184471
Lillö;56.319780264391;15.714080979005;1320;7432024;Lillö;56.319780280887;15.714097406759
Lindahlagården;56.208402046372;14.746520950742;3047;7432481;Lindahlagården;56.208402079363;14.746521063339
Lindås Belganetvägen;56.382235278121;15.091253179386;2139;7432308;Lindås;56.38223503153;15.091204811179
Lindås Brinkabo;56.600730779037;15.566365188069;8118;7451899;Brinkabo;56.600766801042;15.566397791038
Lindås Flygtvägen;56.616807299198;15.567159076244;8116;7451909;Flygtvägen;56.616843165776;15.567110256756
Lindås Folkets Hus;56.621236002573;15.56786411775;8114;7451921;Lindås Folkets Hus;56.621245084834;15.567896911112
Lindås Norra Krangatan;56.619035887243;15.567910561865;8115;7451910;Norra Krangatan;56.619000005319;15.56791105894
Lindås skola;56.614216128806;15.569341584902;8117;7421003;Lindås skola;56.614243232727;15.569406832798
Lindåsvägen Lyckeby;56.193479056422;15.699903035074;1137;7431890;Lindåsvägen;56.193497005757;15.699903240726
Lindegårdsvägen;56.193556904208;14.75405044285;3082;7432510;Lindegårdsvägen;56.19355666072;14.754018342685
Lindekullen Ronneby;56.179499095889;15.27790234454;2050;7432234;Lindekullen;56.179481134044;15.277902777865
Lindesnäs Karlskrona;56.189002996566;15.614923425221;1020;7431783;Lindesnäs;56.188993929659;15.614875393169
Lindet vsk;56.340834060339;15.299186218331;2166;7432333;Lindet vsk;56.340869737126;15.299121275701
Lindvägen Kallinge;56.238716764572;15.285441243491;2005;7432199;Lindvägen;56.23869894647;15.285473935756
Linfältsvägen Kallinge;56.244455206338;15.27686303966;2012;7432202;Linfältsvägen;56.244500048591;15.276846486882
Listerby;56.198066592663;15.402774282683;2111;7410964;Listerby Shell;56.198093689743;15.402822536957
Listerby E22;56.199582346718;15.40214616417;2301;7424393;Listerby E22;56.199618319791;15.402162105263
Listershuvud;56.036966119599;14.734827335161;4021;7432622;Listershuvud;56.036930489499;14.734860482208
Ljungåsen;56.116871659311;15.852578876797;1226;7431963;Ljungåsen;56.116835731226;15.852514805891
Ljungbacken;56.393798017857;15.400188491229;1494;7432153;Ljungbacken;56.393780343947;15.400269873428
Ljusaryds vsk;56.242232456589;14.648922150973;6033;7432798;Ljusaryds vsk;56.242197036475;14.648971716548
Lokstallarna;56.668798443616;16.322565534865;8007;7452048;Lokstallarna;56.668807326737;16.322598623874
Lönnamovägen Kallinge;56.252421119469;15.302614245868;2151;7432319;Lönnamovägen;56.252420865304;15.302549917812
Lönneborg;56.094801784587;14.65808836826;4056;7432648;Lönneborg;56.094801510035;14.658056314552
Lönsboda busstationen;56.391499954184;14.3265429724;5010;7414836;Lönsboda Kyrkhultsvägen;56.392432321735;14.333178821559
Lönsboda Kyrkhultsvägen;56.39242287607;14.333146688372;5082;7414836;Lönsboda Kyrkhultsvägen;56.392432321735;14.333178821559
Lönsboda Marknadsplatsen;56.401948706052;14.31926959745;5084;7414829;Lönsboda Marknadsplatsen;56.401965970217;14.319204243447
Lönsboda Nyteboda;56.396206691596;14.325809731617;5083;7414835;Lönsboda Nyteboda;56.396206002833;14.325745086487
Lönsboda Valhallavägen;56.404792540135;14.318235338841;5085;7414824;Lönsboda Valhallavägen;56.404829119221;14.318282621021
Lönsbodavägen v 23;56.500279031355;14.122732917013;5100;7414747;Lönsbodavägen v 23;56.500050542544;14.122434596446
Lörby;56.066363151909;14.695156451124;4077;7426079;Lörby;56.066399376291;14.695187594186
Lörby kladd;56.090538147036;14.704726738983;4072;7432663;Lörby kladd;56.090556556044;14.704774492085
Lörby skog;56.082871257928;14.70311436068;4073;7432664;Lörby skog;56.082906764649;14.703065235327
Lörbyvägen;56.109640697957;14.674733394533;4059;7432651;Lörbyvägen;56.109686356023;14.674812505745
Lösen Lyckeby;56.197549317248;15.682589962226;1136;7431889;Lösen;56.197522265913;15.682493644005
Loshult Idrottsplatsen;56.498427309681;14.124617582855;5099;7414783;Loshult Idrottsplatsen;56.498463325292;14.124616110312
Loshult Svenstorp;56.495117675301;14.129619314819;5105;7414788;Källstorp;56.494242228064;14.131298094282
Lugna Dal;56.289015342272;15.582902890568;1361;7432055;Lugna Dal;56.288988374366;15.582887144995
Lugnet;56.2101983715;15.267875535203;2317;7459466;Lugnet;56.210242998125;15.267810638154
Lund C;55.706019256991;13.186737657171;5023;7400120;Lund Centralstation;55.705248794374;13.186836666374
Lunnatorp;56.147115906331;15.37080901788;2246;7432399;Lunnatorp;56.14715199055;15.370857073185
Lyckeåborg;56.229357433976;15.689178563467;1281;7410999;Lyckeåborg;56.22932148771;15.689162806449
Lyckeby;56.198685792274;15.654683485044;1032;7400663;Lyckeby;56.198658956981;15.654780500343
Lyckeby skola Lyckeby;56.201911261341;15.655734123251;1054;7431813;Lyckeby skola;56.201893289042;15.655734442539
Lyckovägen Tingsryd;56.644870820301;14.918331124743;7023;7436552;Lyckovägen Tingsryd;56.644870885001;14.918331339513
Makrilla;56.446436397479;15.304931574234;2181;7432344;Makrilla;56.446418795392;15.305013106983
Målatorps vsk;56.249199805959;15.528191158594;1469;7432133;Målatorps vsk;56.249181662965;15.528110866409
Målen Pukaviksvägen;56.184376871296;14.624702100092;4098;7432686;Målen;56.184395637471;14.624782141918
Målen vsk;56.177300864276;14.60992803795;4094;7432682;Målen vsk;56.177336196306;14.609862616134
Mållsjön;56.321602891901;15.309542468591;2163;7432330;Mållsjön;56.321602973608;15.309558840182
Malmö C;55.608693485687;12.999301539134;5022;7400003;Malmö Centralstation;55.609458404192;13.000913318474
Malmö Hyllie;55.562841127643;12.975968018452;5103;7401586;Malmö Hyllie station;55.563151029648;12.976928382661
Malmö Triangeln;55.59458012245;13.000230524252;5102;7401587;Malmö Triangeln station;55.593206897737;13.001470697346
Månasken;56.313773975675;14.658911444697;6110;7432865;Månasken;56.313783155605;14.658927455182
Manilla;56.663069163836;16.345807630336;8003;7452040;Manilla;56.663051100775;16.345840337388
Marieberg Karlskrona;56.18890900135;15.618048474979;1070;7431829;Marieberg;56.188909063629;15.618097034674
Marieberg Tving;56.326030629427;15.441301765129;1383;7432073;Marieberg Tving;56.326012490363;15.441237511755
Marieborg Svängsta;56.253061123044;14.780975740103;3023;7432461;Marieborg;56.253060891968;14.780943606234
Mariedal Karlskrona;56.198976543556;15.617918623655;1026;7431788;Mariedal;56.198967503742;15.617886689931
Mariedalskyrkan Karlskrona;56.20004017874;15.614594595145;1025;7431787;Mariedalskyrkan;56.200040269063;15.614659279895
Mariedalsvägen Skearyd;56.19677359986;15.877145170937;1191;7431932;Mariedalsvägen;56.196755649914;15.877097094171
Mariefors;56.22103089649;15.678903567;1279;7431997;Mariefors;56.221048817045;15.678871522567
Mariefröjd;56.272116034367;15.737487142069;1285;7432002;Mariefröjd;56.272107033195;15.737455143063
Mariehäll;56.147317473687;14.603233078561;4089;7432677;Mariehäll;56.147362404686;14.603231753781
Markasträtet;56.040681714943;14.738639427568;4022;7432623;Markasträtet;56.040645528922;14.738608409972
Makrilla;56.446436397479;15.304931574234;2181;7432344;Makrilla;56.446418795392;15.305013106983
Målatorps vsk;56.249199805959;15.528191158594;1469;7432133;Målatorps vsk;56.249181662965;15.528110866409
Målen Pukaviksvägen;56.184376871296;14.624702100092;4098;7432686;Målen;56.184395637471;14.624782141918
Målen vsk;56.177300864276;14.60992803795;4094;7432682;Målen vsk;56.177336196306;14.609862616134
Mållsjön;56.321602891901;15.309542468591;2163;7432330;Mållsjön;56.321602973608;15.309558840182
Malmö C;55.608693485687;12.999301539134;5022;7400003;Malmö Centralstation;55.609458404192;13.000913318474
Malmö Hyllie;55.562841127643;12.975968018452;5103;7401586;Malmö Hyllie station;55.563151029648;12.976928382661
Malmö Triangeln;55.59458012245;13.000230524252;5102;7401587;Malmö Triangeln station;55.593206897737;13.001470697346
Månasken;56.313773975675;14.658911444697;6110;7432865;Månasken;56.313783155605;14.658927455182
Manilla;56.663069163836;16.345807630336;8003;7452040;Manilla;56.663051100775;16.345840337388
Marieberg Karlskrona;56.18890900135;15.618048474979;1070;7431829;Marieberg;56.188909063629;15.618097034674
Marieberg Tving;56.326030629427;15.441301765129;1383;7432073;Marieberg Tving;56.326012490363;15.441237511755
Marieborg Svängsta;56.253061123044;14.780975740103;3023;7432461;Marieborg;56.253060891968;14.780943606234
Mariedal Karlskrona;56.198976543556;15.617918623655;1026;7431788;Mariedal;56.198967503742;15.617886689931
Mariedalskyrkan Karlskrona;56.20004017874;15.614594595145;1025;7431787;Mariedalskyrkan;56.200040269063;15.614659279895
Mariedalsvägen Skearyd;56.19677359986;15.877145170937;1191;7431932;Mariedalsvägen;56.196755649914;15.877097094171
Mariefors;56.22103089649;15.678903567;1279;7431997;Mariefors;56.221048817045;15.678871522567
Mariefröjd;56.272116034367;15.737487142069;1285;7432002;Mariefröjd;56.272107033195;15.737455143063
Mariehäll;56.147317473687;14.603233078561;4089;7432677;Mariehäll;56.147362404686;14.603231753781
Markasträtet;56.040681714943;14.738639427568;4022;7432623;Markasträtet;56.040645528922;14.738608409972
Marklunda Karl Johans v;56.389654436882;14.35506518429;5040;7414837;Ö Gisslaboda;56.390898196276;14.355422815608
Märserum;56.208615586249;15.025032619072;3162;7423375;Märserum;56.208588356385;15.024984981212
Maskinvägen;56.46070985244;14.685420461354;7057;7436534;Maskinvägen;56.462085247727;14.686548142222
Måstad;56.318734661292;15.446251920682;1381;7432071;Måstad;56.318752822032;15.446316621895
Masten;56.267349219635;16.031951924109;1265;7434588;Masten Milastensv.;56.267340143435;16.03200059939
Masten vsk;56.267349219635;16.031951924109;1462;7434588;Masten Milastensv.;56.267340143435;16.03200059939
Mialyckan;56.365018236765;15.168547004671;2193;7432355;Mialyckan;56.365054185534;15.168546602609
Micklavägen Hasslö;56.11072648378;15.479266268268;1449;7432121;Micklavägen;56.110753450512;15.479282323779
Milastensvägen;56.281042633271;15.97746313435;1160;7431906;Milastensvägen;56.281168293474;15.977512433844
Miljöstationen Hemsjö;56.322613017824;14.699523840331;6123;7432877;Miljöstationen Hemsjö;56.322595397666;14.699556809782
Millegarne badplats;56.133708329519;15.320571969711;2255;7432406;Millegarne badplats;56.133672144423;15.320508280079
Millegarne gård;56.133610303688;15.329997932467;2259;7432409;Millegarne gård;56.133619274988;15.329998010091
Missionshuset;56.269118753846;15.557340429265;1370;7432063;Missionshuset;56.269091813111;15.557340843951
Mjällby Centrumvägen;56.045711192496;14.678033696706;4030;7400588;Mjällby Centrumvägen;56.045674703323;14.677970636816
Mjällby Klockskogsvägen;56.045316689761;14.670278286047;4035;7432631;Klockskogsvägen;56.045334664793;14.670277821619
Mjällby Ljunga vsk;56.048036775871;14.682876650617;4034;7426078;Mjällby Ljunga vsk;56.047964955388;14.682878804494
Mjällby Österbo;56.046353009876;14.68340701844;4146;7459479;Österbo;56.046353025131;14.683407084172
Mjällby skola;56.047875589179;14.676044709789;4040;7432636;Mjällby skola;56.047903425332;14.676140251836
Mjövkstrandsvägen Nättraby;56.187813680648;15.527813870113;1424;7411061;Nättraby Mjöviksstrandsvägen;56.187840469579;15.527749480496
Mjuamåla;56.442329831046;15.320145077355;2180;7432343;Mjuamåla;56.442347821836;15.3201450747
Möckleryd;56.117013731929;15.824333488662;1215;7431954;Möckleryd;56.117022678878;15.824381991971
Möcklerydsvägen;56.574513571597;14.94365393235;7031;7436564;Möcklerydsvägen;56.57521826473;14.94295472994
Möcklerydsvägen Torhamn;56.122841377565;15.830751516642;1216;7431955;Möcklerydsvägen;56.122859300749;15.83081611437
Möcklö;56.151664962643;15.761355505247;1232;7431968;Möcklö;56.151682892714;15.761323565791
Möcklöbron;56.141656391879;15.752262334136;1234;7431970;Möcklöbron;56.141620473883;15.752326989853
Modala;56.404437267795;15.19200582639;2189;7432351;Modala;56.404419418823;15.192022517954
Möljeryd Hembygdspark;56.325768343449;15.295862230917;2164;7432331;Möljeryd Hembygdsparken;56.325768627715;15.295927091901
Mölleåker;56.227792980668;15.687329261444;1280;7431998;Mölleåker;56.22779303525;15.68739400676
Möllebjörke vsk;56.13538050899;14.636901784137;4130;7432708;Möllebjörke vsk;56.135380540338;14.636901864053
Möllegården;56.26493289134;14.768909083952;3027;7432464;Möllegården;56.264905450512;14.768845399398
Möllehall;56.261045137503;16.031656641909;1923;7432186;Möllehall;56.261054139744;16.031640869803
Möllekulla;56.176590454397;14.635166189172;4104;7432689;Möllekulla;56.176590491257;14.635166278711
Möllelycke;56.382464765593;14.466414700299;6070;7432830;Möllelycke;56.382447580509;14.466480181838
Möllenäs;56.286355295496;15.217927808017;2120;7432292;Möllenäs;56.286355542015;15.21797643938
