name;lat;lon;id;gtfsid;gtfsname;gtfslat;gtfslon
ABB Ludvika rv 50;60.143950862057;15.179105746649;585268;7412954;Ludvika ABB väg 50;60.14398649596;15.179105332206
Abborns;60.707396499724;15.783058098931;580118;7447935;Abborns;60.707396170028;15.783131439554
Albacken;60.691023970547;13.711405852537;523212;7448748;Albacken;60.691023833975;13.711424618293
Alderbäcken;60.447391390396;15.422066474792;581109;7425268;Alderbäcken;60.447382366038;15.422157600365
Algatan Älvbro;60.160568689995;16.140372070324;584207;7446274;Algatan Älvbro;60.160577245048;16.140444300516
Allén;60.595378087301;15.741400936391;580314;7447774;Allén;60.595377770992;15.741419297627
Allevägen (Falun);60.601432718991;15.658244605266;580538;7447585;Allevägen;60.601414359358;15.658171798549
Allfarvägen;60.499381000687;15.417921375591;581266;7447327;Allfarvägen;60.499335753585;15.417903897201
Almberg;60.742718137229;15.165515515752;529117;7448316;Almberg;60.742753310613;15.165441656771
Almberg vsk;60.740395720087;15.169723349821;529162;7448281;Almberg vsk;60.740440131432;15.169704316089
Almo;60.760029113768;14.83997963558;529027;7448385;Almo;60.760011174485;14.840035438954
Alsbo vsk;60.110223777868;16.286677932694;584139;7446330;Alsbo vsk;60.110313369104;16.286661349441
Alsbäck;60.475183990884;15.496741182026;581055;7425279;Alsbäck;60.475219576751;15.496741010557
Altsarbyn;60.853896115852;15.110875070461;531107;7448499;Altsarbyn;60.853950040082;15.110966056261
Alvik gamla pensionatet;60.746296218835;14.88060531811;529010;7425362;Alvik gamla pensionatet;60.746295834131;14.880605554249
Alvik, Vattenverket;60.749342348769;14.890273686233;529345;7425362;Alvik gamla pensionatet;60.746295834131;14.880605554249
Amsberg korsn rv 70;60.529487078886;15.33796953795;581153;7413000;Amsberg korsning väg 70;60.529504635593;15.33795125623
Amshyttan;60.434868628446;15.944440168749;583108;7425176;Amshyttan;60.434850613231;15.944222275799
Amundshögen;60.41026460304;15.971101529255;583001;7446704;Amundshögen;60.410228349727;15.971155886363
Andrens Sörboda;61.10603906506;15.25282624045;531015;7448563;Andrens Sörboda;61.106074680968;15.252862803675
ABB Ludvika rv 50;60.143950862057;15.179105746649;585268;7412954;Ludvika ABB väg 50;60.14398649596;15.179105332206
Abborns;60.707396499724;15.783058098931;580118;7447935;Abborns;60.707396170028;15.783131439554
Albacken;60.691023970547;13.711405852537;523212;7448748;Albacken;60.691023833975;13.711424618293
Alderbäcken;60.447391390396;15.422066474792;581109;7425268;Alderbäcken;60.447382366038;15.422157600365
Algatan Älvbro;60.160568689995;16.140372070324;584207;7446274;Algatan Älvbro;60.160577245048;16.140444300516
Allén;60.595378087301;15.741400936391;580314;7447774;Allén;60.595377770992;15.741419297627
Allevägen (Falun);60.601432718991;15.658244605266;580538;7447585;Allevägen;60.601414359358;15.658171798549
Allfarvägen;60.499381000687;15.417921375591;581266;7447327;Allfarvägen;60.499335753585;15.417903897201
Almberg;60.742718137229;15.165515515752;529117;7448316;Almberg;60.742753310613;15.165441656771
Almberg vsk;60.740395720087;15.169723349821;529162;7448281;Almberg vsk;60.740440131432;15.169704316089
Almo;60.760029113768;14.83997963558;529027;7448385;Almo;60.760011174485;14.840035438954
Alsbo vsk;60.110223777868;16.286677932694;584139;7446330;Alsbo vsk;60.110313369104;16.286661349441
Alsbäck;60.475183990884;15.496741182026;581055;7425279;Alsbäck;60.475219576751;15.496741010557
Altsarbyn;60.853896115852;15.110875070461;531107;7448499;Altsarbyn;60.853950040082;15.110966056261
Alvik gamla pensionatet;60.746296218835;14.88060531811;529010;7425362;Alvik gamla pensionatet;60.746295834131;14.880605554249
Alvik, Vattenverket;60.749342348769;14.890273686233;529345;7425362;Alvik gamla pensionatet;60.746295834131;14.880605554249
Amsberg korsn rv 70;60.529487078886;15.33796953795;581153;7413000;Amsberg korsning väg 70;60.529504635593;15.33795125623
Amshyttan;60.434868628446;15.944440168749;583108;7425176;Amshyttan;60.434850613231;15.944222275799
Amundshögen;60.41026460304;15.971101529255;583001;7446704;Amundshögen;60.410228349727;15.971155886363
Andrens Sörboda;61.10603906506;15.25282624045;531015;7448563;Andrens Sörboda;61.106074680968;15.252862803675
Anisstigen;60.127465063016;15.20878044411;585233;7447017;Anisstigen;60.127428739033;15.208745382093
Annaskolan Dormsjö;60.365280536546;16.189471559004;583094;7446626;Annaskolan Dormsjö;60.36526231587;16.189471419462
Annexet;60.482880517174;15.747136291353;580223;7447859;Annexet;60.482925069883;15.747099963235
Annikaholen;60.720387901899;13.595551126492;523182;7448774;Annikaholen;60.720404800029;13.595513772675
Anslagstavlan;60.494618382062;14.953470417044;526001;7445811;Anslagstavlan;60.494662915551;14.953469501526
Anstahyttan;60.390157370839;15.900345842765;582079;7446758;Anstahyttan;60.390462506889;15.899965999597
Arkhyttan Bergå;60.441512787074;15.886417416155;582072;7425206;Arkhyttan Bergå;60.441539483509;15.886308610707
Arlanda TÅG;0.0058704365823196;-2.0452751445467;;;not found;;
Arvet;61.146404688797;15.133750585353;531012;7425415;Arvet;61.146368075305;15.13369576855
Arvet Gammelvägen;61.151742974953;15.131649915903;531039;7448545;Arvet Gammelvägen;61.151742901248;15.131724308343
Arvet södra;61.141613745909;15.135838934967;531041;7448544;Arvet södra;61.141622277354;15.135838862532
Arvheden;61.162870586363;15.131523790613;531038;7448546;Arvheden;61.162869955464;15.131486753791
Arvslindan;60.532537817549;15.163079493656;526098;7413037;Arvslindan;60.532546280922;15.163043108614
Asköberg;60.169178921234;16.097335804113;584077;7446384;Asköberg;60.169205684726;16.097300129092
Askövägen;60.164698320351;16.129139229743;584017;7446435;Askövägen;60.164733981713;16.129139689943
Aspeboda kyrka;60.55946542851;15.495607934053;580395;7425290;Aspeboda kyrka;60.559491939839;15.495571375055
Aspelinvägen Dala-Järna;60.541541933908;14.380079863918;521094;7448144;Aspelinvägen Dala-Järna;60.541559512149;14.380079437125
Aspen;61.169879699208;14.770621815942;534075;7448954;Aspen;61.169924381745;14.770657675285
Aspåker;60.382431984807;16.016324061935;583085;7446634;Aspåker;60.382431676554;16.016342289418
Aspån;60.559870243867;15.503844046519;580389;7447720;Aspån;60.55986975097;15.503771284483
Aug Lindbergs plan;60.275426996999;15.987645001634;583285;7446468;Aug Lindbergs plan;60.27539980867;15.987644968912
Avesta busstn;60.143857317529;16.167363693681;584216;7401014;Avesta busstation;60.143902204043;16.167274295649
Avesta centrum TÅG;0.0058704365823196;-2.0452751445467;;;not found;;
Avesta Lasarett huvudentren;60.141544323163;16.201030937524;584043;7425138;Avesta Lasarett Krylbovägen;60.140669709054;16.199274782389
Avesta Lasarett Krylbovägen;60.14063393479;16.199310248332;584162;7425138;Avesta Lasarett Krylbovägen;60.140669709054;16.199274782389
Avesta-Krylbo TÅG;0.0058704365823196;-2.0452751445467;;;not found;;
Axel Johnsons väg;60.141034763376;16.165622960264;584039;7446417;Avesta Axel Johnsons väg;60.141034528835;16.165623065559
Axelinas gata;60.515851043975;15.406054584206;581313;7447280;Axelinas gata;60.515814821403;15.406055207028
Babbens garage Sörboda;61.16673675274;15.221850009989;531010;7448566;Babbens garage Sörboda;61.16670057672;15.221887928642
Back Hans;60.775384716417;15.064069573791;529122;7448312;Back Hans;60.775348235865;15.064033900873
Backa (Rättvik);60.925693751716;15.117774380981;531223;7425366;Backa;60.925692968372;15.117700794458
Backa Gustafs;60.400423350509;15.637824770836;582133;7446719;Backa Gustafs;60.400441050752;15.637861116533
Backa norra Gustafs;60.402040196258;15.631884094642;582047;7446779;Backa norra Gustafs;60.40204885134;15.631866063038
Backa södra (Rättvik);60.920966541608;15.12001501263;531224;7448420;Backa södra;60.920948188752;15.120015561501
Backa södra Gustafs;60.398355059777;15.641789890605;582132;7446720;Backa södra Gustafs;60.398381779272;15.641862469547
Backa Toftbyn;60.711864004897;15.774006791468;580203;7408810;Backa;60.711881601911;15.773970229305
Backa trafikplats (Hedemora);60.25921567655;16.019200983024;583232;7446508;Backa trafikplats;60.259558266031;16.018083430072
Backa västra (Rättvik);60.924169641985;15.111095690081;531221;7448422;Backa västra;60.924133340823;15.111096636009
Backabro Toftbyn;60.710623932485;15.768037261924;580202;7408817;Backabro;60.710623609886;15.768110611856
Backafors;60.615206532466;15.775052958413;580264;7447824;Backafors;60.615224137699;15.774979999113
Backanäs;60.701123884598;15.787347128071;580119;7447934;Backanäs;60.70111456877;15.787347220608
Backarna;60.533182027018;15.195144209699;526099;7448037;Backarna;60.533145544982;15.19509045878
Backberget;60.593149837531;15.756515330761;580515;7425288;Falun Backberget;60.593140558857;15.756570199732
Backbyn;60.132738589256;15.432955888731;561104;7412945;Smedjebacken Backbyn;60.132738536007;15.433028086695
Backbyn skolan;60.131426228486;15.441931091408;561103;7446876;Backbyn skolan;60.131416799637;15.441859447729
Backen (Falun);60.842127524597;15.65338136751;580038;7447993;Backen;60.842109205869;15.65338153967
Backen (Leksand);60.756030901881;14.848152240846;529025;7448386;Backen;60.756031037847;14.848225835434
Backen (Malung);60.71682701712;13.60503209774;523183;7448773;Backen;60.716791915009;13.605108265519
Babbens garage Sörboda;61.16673675274;15.221850009989;531010;7448566;Babbens garage Sörboda;61.16670057672;15.221887928642
Back Hans;60.775384716417;15.064069573791;529122;7448312;Back Hans;60.775348235865;15.064033900873
Backa (Rättvik);60.925693751716;15.117774380981;531223;7425366;Backa;60.925692968372;15.117700794458
Backa Gustafs;60.400423350509;15.637824770836;582133;7446719;Backa Gustafs;60.400441050752;15.637861116533
Backa norra Gustafs;60.402040196258;15.631884094642;582047;7446779;Backa norra Gustafs;60.40204885134;15.631866063038
Backa södra (Rättvik);60.920966541608;15.12001501263;531224;7448420;Backa södra;60.920948188752;15.120015561501
Backa södra Gustafs;60.398355059777;15.641789890605;582132;7446720;Backa södra Gustafs;60.398381779272;15.641862469547
Backa Toftbyn;60.711864004897;15.774006791468;580203;7408810;Backa;60.711881601911;15.773970229305
Backa trafikplats (Hedemora);60.25921567655;16.019200983024;583232;7446508;Backa trafikplats;60.259558266031;16.018083430072
Backa västra (Rättvik);60.924169641985;15.111095690081;531221;7448422;Backa västra;60.924133340823;15.111096636009
Backabro Toftbyn;60.710623932485;15.768037261924;580202;7408817;Backabro;60.710623609886;15.768110611856
Backafors;60.615206532466;15.775052958413;580264;7447824;Backafors;60.615224137699;15.774979999113
Backanäs;60.701123884598;15.787347128071;580119;7447934;Backanäs;60.70111456877;15.787347220608
Backarna;60.533182027018;15.195144209699;526099;7448037;Backarna;60.533145544982;15.19509045878
Backberget;60.593149837531;15.756515330761;580515;7425288;Falun Backberget;60.593140558857;15.756570199732
Backbyn;60.132738589256;15.432955888731;561104;7412945;Smedjebacken Backbyn;60.132738536007;15.433028086695
Backbyn skolan;60.131426228486;15.441931091408;561103;7446876;Backbyn skolan;60.131416799637;15.441859447729
Backen (Falun);60.842127524597;15.65338136751;580038;7447993;Backen;60.842109205869;15.65338153967
Backen (Leksand);60.756030901881;14.848152240846;529025;7448386;Backen;60.756031037847;14.848225835434
Backen (Malung);60.71682701712;13.60503209774;523183;7448773;Backen;60.716791915009;13.605108265519
Backen Mockfjärd;60.502177374564;14.975073718464;526040;7448082;Backen Mockfjärd;60.502159316361;14.975110827053
Backgatan (Ludvika);60.143873480713;15.193255052492;585278;7446975;Backgatan;60.143872715758;15.193147329766
Backgatan (Smedjebacken);60.145953137813;15.397344940588;561124;7446859;Backgatan;60.145917199804;15.397417617192
Backgården (Hedemora);60.288859418015;15.906183499386;583256;7446489;Backgården;60.288859150312;15.906183627225
Backgården södra (Borlänge);60.458492216961;15.397455887279;581392;7447207;Backgården södra;60.458527913353;15.397491971172
Backliden Långshyttan;60.458688378643;16.04076870867;583057;7446658;Backliden Långshyttan;60.458679016343;16.040823245154
Backnilsbo;60.255294388632;15.960027642375;583290;7446465;Backnilsbo;60.255329966561;15.960082115171
Backs;60.786479327925;15.836534356827;580066;7447981;Backs;60.786461033686;15.836497688346
Backtäkten;60.480004573572;15.668727219653;580232;7447852;Backtäkten;60.479995290402;15.668727398265
Backvägen (Orsa);61.106236287569;14.631925544648;534071;7448957;Backvägen;61.106236310342;14.631981376418
Backvägen Mockfjärd;60.501367318789;14.970399354658;526034;7448087;Backvägen Mockfjärd;60.501411851808;14.970398458168
Badhuset Grängesberg;60.078639718907;15.011409191539;585130;7412967;Grängesberg Badhuset;60.078638812633;15.011301725688
Badhuset Malungsfors;60.728762280605;13.549619843946;523163;7448791;Badhuset Malungsfors;60.728798330147;13.549654450694
Badplatsvägen Venjan;60.954725549923;13.931443273662;562231;7448586;Badplatsvägen Venjan;60.954708171023;13.931518489026
Badstubacken;61.009506662759;14.544014832705;562008;7448740;Badstubacken;61.009499145447;14.544218746843
Badvägen;61.033799271659;14.524564264255;562060;7448699;Badvägen;61.033816763016;14.524563787382
Bagarvägen;60.600905155392;15.668468757943;580290;7447799;Bagarvägen;60.600886801799;15.668395945072
Bageriet Äppelbo;60.459178339988;13.999137003199;521042;7448182;Bageriet Äppelbo;60.459296070948;13.999239959088
Baggarvsvägen;60.742084551309;15.465941440729;580109;7445809;Baggarvsvägen;60.74205726746;15.465941860264
Baggbo;60.429602995547;15.282519947805;581118;7413002;Baggbo;60.429584875907;15.282556762797
Baggbo (Falun);60.760349887786;15.426492247702;580164;7430334;Baggbo;60.760349522621;15.426492385904
Baggbovägen;60.162307785107;16.137652278216;584206;7446275;Baggbovägen;60.162289775733;16.137580168445
Baggbäcken;61.265401455937;13.185136962906;523049;7448895;Baggbäcken;61.265409488589;13.185118057742
Baggetorp, Rättvik;60.92085216293;15.209009914817;531227;7448418;Baggetorp;60.920834058892;15.209065702596
Baggärdet;60.636475402163;15.842789332747;580256;7447831;Baggärdet;60.636493033329;15.842752894851
Balungstrand;60.888421012464;15.749794342549;580023;7413032;Balungstrand;60.888402713251;15.749849688134
Banerskolan;60.69815620726;15.04988465925;529147;7448293;Banerskolan;60.698173785757;15.049884451605
Banmästargränd;60.459364501931;16.05400400945;583052;7446662;Banmästargränd;60.459373016862;16.05409502467
Banvaktsstugan Budsäl;60.914406712012;14.449392248027;562007;7448741;Banvaktsstugan Budsäl;60.91442385011;14.449354916463
Barbergsvägen;60.49889172404;15.476226835442;581220;7447361;Barbergsvägen;60.498864256324;15.476136302724
Barbrogatan;60.34605086779;15.757163841924;582022;7446799;Barbrogatan;60.346059547184;15.757127752123
Barkargattu Bäsna;60.540656047872;15.212548828527;526101;7425070;Bäsna Barkargattu;60.540673985415;15.212621582341
Barkargärdet norra;60.50259783933;15.494660049302;581217;7412998;Borlänge Barkargärdet norra;60.502588546224;15.494660302243
Barnstugan Husby;60.394815365397;15.993804309607;583008;7446697;Barnstugan Husby;60.394851059637;15.993750202355
Barnängen Edsbyn;61.381960241977;15.831870131466;421016;7418789;Edsbyn Barnängen;61.380550366888;15.834637401457
Barrskogsgatan;60.513900685023;15.396266495973;581310;7447283;Barrskogsgatan;60.513900305318;15.396248474323
Basarplan;60.347923884896;15.750115629378;582011;7446811;Basarplan;60.347941529297;15.75006140949
Bastun Gassarvet;60.769578313195;14.908413542418;529048;7448370;Bastun Gassarvet;60.769550759575;14.908377829129
Bastun Korskrogen;60.112435870794;16.288022866346;584137;7446332;Bastun Korskrogen;60.112462832078;16.287951423201
Bastuvägen;60.588848125656;15.641296639107;580481;7447637;Bastuvägen;60.588829803315;15.641260367343
Befälsgatan;60.432941216152;15.505841030045;581080;7447479;Befälsgatan;60.432967875932;15.505859115115
Bel-Nilsgatan Öje;60.808978731057;13.851068502786;523111;7448839;Bel-Nilsgatan Öje;60.808942947492;13.851107836091
Bengtsarvet (Falun);60.677900065782;15.508592225377;580136;7447918;Bengtsarvet;60.677899555239;15.508519177381
Bengtsarvet (Mora);60.926663611007;14.618053599178;562098;7413019;Bengtsarvet;60.9266997226;14.6181262545
Bengtsbo västra;60.164787046276;16.122115875568;584079;7446382;Bengtsbo västra;60.164750905361;16.122115640268
Bengtsbogatan;60.16344637517;16.134566001659;584205;7425132;Avesta Bengtsbogatan;60.16346417562;16.134530268695
Bengtsheden;60.700641533135;15.873805233981;580104;7424262;Bengtsheden;60.700650188436;15.873768706742
Bengtsheden länsvägen;60.696858539129;15.86460697335;580101;7447950;Bengtsheden länsvägen;60.697064618943;15.864607422274
Bengtsvägen;60.67820715665;13.710482142853;523135;7448816;Bengtsvägen;60.678170003418;13.710430099086
Berg (Borlänge);60.458222792108;15.525888658921;581001;7447540;Berg(ej stolpe);60.45823164849;15.525979613094
Berg norra (Leksand);60.709248932693;15.094038515006;529173;7448271;Berg norra;60.709275971543;15.094129688925
Berg södra (Leksand);60.707802098927;15.097074084051;529172;7448272;Berg södra;60.707765930812;15.09709339102
Berga (Hedemora);60.405830668189;15.978391044413;583005;7446700;Berga;60.405821408295;15.978391096844
Berga (Sälen);61.102764573933;13.305990765365;523058;7448897;Berga södra;61.102755420908;13.306010472997
Berga Leksand;60.809433544352;15.129973268373;529255;7438172;Berga Leksand;60.809441947639;15.129936519285
Berga norra (Hedemora);60.415601541668;15.966391584757;583004;7446701;Berga norra;60.415619117524;15.966464369769
Berga södra (Hedemora);60.404928905953;15.981652070435;583006;7446699;Berga södra;60.404919646323;15.981652121563
Berga södra (Sälen);61.102764573933;13.305990765365;523044;7448897;Berga södra;61.102755420908;13.306010472997
Bergalid;60.227519799196;15.065301484928;585043;7447170;Bergalid;60.227501364522;15.065266081821
Bergaskolan Smedjebacken;60.144527838043;15.415794464486;561092;7425227;Smedjebacken Bergaskolan;60.144536554596;15.415794586386
Bergavägen;60.143770572993;15.414669477962;561177;7453879;Bergavägen;60.143815350097;15.414723169457
Bergbacken;60.312047577592;15.999263840691;583133;7446591;Bergbacken;60.312002459671;15.999245593887
Bergebyvägen;60.504146224496;15.467128609076;581397;7430346;Bergebyvägen;60.504137022639;15.467165270742
Bergetskolan Orsa;61.111718078237;14.642072473331;534027;7448989;Bergetskolan Orsa;61.111709443408;14.642165727811
Bergetskolan skolbuss;61.112736572674;14.642572952147;534126;7461822;Bergetskolan skolbuss;61.112699584363;14.642500306621
Bergheden;60.481651167;14.008637583987;521016;7448203;Bergheden;60.481687906581;14.008726929409
Bergkarlås;61.036305003482;14.630237779749;562113;7413091;Bergkarlås;61.036305200129;14.630312002615
Bergkarlås Bygdegården;61.035573042714;14.649398392881;562111;7413092;Bergkarlås Bygdegården;61.035572595811;14.649398617029
Berglunden;60.143520260116;15.188707730448;585275;7446978;Berglunden;60.14358256743;15.188652825949
Bergmästargatan;60.607508074724;15.635176654828;580318;7447770;Bergmästargatan;60.607489747365;15.63514036366
Bergnäs;60.456257436447;15.427867667191;581400;7410127;Bergnäs;60.456283532392;15.427685824316
Bergsgatan;60.141455043764;15.184696790137;585273;7425242;Ludvika Bergsgatan;60.141499822112;15.184732205636
Bergsgården;60.661866785496;15.559433630158;580357;7408802;Bergsgården;60.66184862781;15.559507048596
Bergsgården norra;60.663514899511;15.548191823627;580356;7425296;Bergsgården norra;60.663532434336;15.548155236556
Bergshyttan;60.11268231576;16.364668331553;584090;7412920;Bergshyttan;60.112699739094;16.364740638298
Bergslagsbyn;60.097875799938;15.004079462737;585308;7410143;Grängesberg Bergslagsbyn;60.097981707458;15.003825535596
Bergslagsbyn övre;60.095117258166;15.000641666859;585076;7447146;Bergslagsbyn övre;60.095090181761;15.000660600903
Bergslagsvägen Vikmanshyttan;60.299285701032;15.841146759363;583252;7446493;Bergslagsvägen Vikmanshyttan;60.299303389301;15.841110746341
Bergsmansplan;60.071067288391;14.991296056769;585112;7447120;Bergsmansplan;60.071068579228;14.991547775707
Bergsmansvägen;60.088809153883;14.996554657057;585326;7465315;Bergsmansvägen;60.08878163926;14.996501722581
Bergsmansvägen Söderbärke;60.070979945352;15.551038327195;561078;7425230;Söderbärke Bergsmansvägen;60.070997585011;15.551002484126
Bergsnäsgatan;60.141166555096;16.195231058834;584161;7446312;Avesta Bergsnäsgatan;60.141130156391;16.195320722246
Bergsnässkolan;60.141857833495;16.189011787315;584160;7425139;Avesta Bergnässkolan;60.141866522806;16.189029990777
Bergsnässkolan(skolbuss);60.142199516558;16.191895523914;584058;7425146;Avesta Bergnässk Skolbusshpl;60.142217180733;16.191913832895
Bergsvalla;60.91814030674;13.37346305683;523097;7448851;Bergsvalla;60.918130187761;13.373427408408
Bergsängskorset;60.806632476082;15.063530036714;529057;7448366;Bergsängskorset;60.806667780124;15.063492661236
Bergtäktsvägen;60.346810071214;15.730249838572;582126;7446722;Bergtäktsvägen;60.346764849966;15.730141426749
Bergvägen;61.132768035317;14.633112308126;534058;7448967;Bergvägen;61.13272206572;14.633039957944
Beriholen;60.712279707985;13.628943469674;523185;7448771;Beriholen;60.712242215082;13.628873173324
Berisgården;60.868483838496;13.412230366036;523104;7448846;Berisgården;60.868455809585;13.412196106557
Bersällgården;61.14119555213;13.278582375883;523005;7448926;Bersällgården;61.14121398272;13.278637051954
Bertilsbo norra;60.793727180648;15.275704336145;531238;7448410;Bertilsbo norra;60.793762700328;15.275703900858
Bertilsbo södra;60.786138758193;15.29060858965;531189;7448440;Bertilsbo södra;60.786102838874;15.290701111477
Besöksgruvan;60.600793777884;15.614494964985;580553;7447571;Besöksgruvan;60.600999683103;15.614366101229
Betania Enviken;60.813497026301;15.759830017501;580054;7408820;Enviken Betania;60.813469767295;15.759903626065
Betlehem;60.436806485806;16.119720788413;583104;7446619;Betlehem;60.43679735392;16.119666292214
Biblioteket Sågmyra;60.714018683127;15.290958540944;580612;7436301;Biblioteket Sågmyra;60.714036198739;15.290940106184
Bilprovningen Falun;60.612341320442;15.594614790849;580465;7447651;Bilprovningen Falun;60.612367853355;15.594578229004
Bilprovningen Rättvik;60.892440741597;15.144279171062;531146;7448472;Bilprovningen Rättvik;60.892439979754;15.144205662347
Bilprovningen Vansbro;60.504115867966;14.240423986177;521028;7448191;Bilprovningen Vansbro;60.504089229871;14.240480255978
Bilskroten Amsberg;60.529305360165;15.332253255909;581171;7412991;Amsberg Bilskroten;60.529305871544;15.332490204408
Bilverkstaden Floda;60.430592803384;15.326082929085;581114;7447451;Bilverkstaden Floda;60.430556723661;15.32611997841
Bilverkstaden Gustafs;60.414891119298;15.593829830361;582136;7446716;Bilverkstaden Gustafs;60.414917802442;15.59386611466
Bilvägen;60.124176477415;15.180813157745;585244;7447006;Bilvägen;60.124157925672;15.180741819712
Bingsjö;61.023036086954;15.648331840488;531058;7470550;Bingsjö;61.023026626484;15.648257961017
Birgittagården;60.579286228964;15.763741799782;580506;7447613;Birgittagården;60.57932179503;15.763705380817
Biskopsbyn;60.922131203225;13.361316729813;523073;7448873;Biskopsbyn;60.922130714887;13.361317234526
Biskopsgården;60.156860123155;15.206734496811;585302;7410149;Ludvika Biskopsgården;60.15659077158;15.206775672889
Bispberg;60.355894760275;15.783616480332;582112;7425198;Bispberg;60.355939343523;15.783562240154
Bispberg affären;60.358210554467;15.784883081166;582111;7446732;Bispberg affären;60.358183365925;15.785010057931
Bispberg nedre;60.354170942424;15.780375088093;582113;7446731;Bispberg nedre;60.354233471273;15.78030271779
Bispberg vsk;60.338571486578;15.777236946283;582119;7425197;Bispberg vägskäl;60.338975396632;15.778685256959
Bispberg övre;60.359943292812;15.78854182637;582110;7446733;Bispberg övre;60.359889146273;15.788451402284
Bispbergshyttan;60.381223820901;15.81946009898;582091;7446748;Bispbergshyttan;60.381160728581;15.819260773126
Bjugg Görans väg;60.469003598932;15.361474272633;581294;7447299;Bjugg Görans väg;60.469003524212;15.361547180854
Bjursbacken;60.757875654186;15.467773489679;580129;7413024;Bjursås Kvarntäkt;60.745205274108;15.468658797338
Bjursås korsvägen;60.734465476479;15.438895140421;580183;7400641;Bjursås Korsvägen;60.734447167349;15.438895485827
Bjursås Kvarntäkt;60.745151372961;15.468494217939;580176;7413024;Bjursås Kvarntäkt;60.745205274108;15.468658797338
Bjursås SkiCenter;60.765625572214;15.462591406874;580175;7430334;Baggbo;60.760349522621;15.426492385904
Bjursåsskolan;60.737464377846;15.452755568432;580180;7447884;Bjursåsskolan;60.737446165344;15.452792563631
Bjursåsskolan skolbusshpl;60.738170552944;15.451684598977;580157;7447903;Bjursåsskolan skolbusshpl;60.738161218114;15.451684835519
Bjuråker;60.573678898271;13.831388312976;523209;7448751;Bjuråker;60.573714652509;13.831404818425
Bjus;61.160717901017;14.622971569871;534012;7445816;Bjus;61.160725753422;14.622897150111
Bjäkenbackens skola;61.027492355306;14.507021624925;562204;7448606;Bjäkenbackens skola;61.027456371378;14.507060330145
Björbo brandstationen;60.457737037584;14.718920660189;526017;7413045;Björbo brandstation;60.457772445153;14.718901601747
Björbo Konsum;60.456092308261;14.72971613703;526019;7425020;Björbo Konsum;60.456064757535;14.729681000391
Björbo TÅG;0.0058704365823196;-2.0452751445467;;;not found;;
Björboskolan;60.460806137167;14.71116590391;526004;7448110;Björboskolan;60.460850665308;14.711164704964
Björka;60.531568640612;15.080786482176;526094;7413038;Björka;60.531585953795;15.080731677415
Björkagården;60.533124692489;15.110078825923;526095;7448040;Björkagården;60.533088173171;15.110025185216
Björkbacken Siljansnäs;60.778476456571;14.861872853162;529038;7448376;Björkbacken Siljansnäs;60.778476065294;14.86187308715
Björkberg vsk;60.777781921105;15.078991292511;529068;7448357;Björkberg vsk;60.777763790066;15.079028598678
Björkberget;60.782672607633;14.863823788394;529040;7448374;Björkberget;60.782709010841;14.863951444424
Björkboda;60.824202035894;15.695686157311;580035;7447996;Björkboda;60.824201716084;15.695741380059
Björkboda norra;60.828194256933;15.683687017637;580036;7447995;Björkboda norra;60.828229872319;15.683778876041
Björken (Falun);60.606191984515;15.637702962352;580569;7447561;Björken;60.606236527463;15.637702855356
Björken (Orsa);61.18130959645;14.736618730081;534035;7448983;Björken;61.181327219966;14.736636884562
Björken östra (Orsa);61.182135549283;14.740067051113;534034;7448984;Björken östra;61.182162583749;14.740140659058
Björkhaga;60.524076332153;15.294288627513;581387;7447212;Björkhaga;60.524049218889;15.294325668781
Björkhagsskolan;60.742414310897;15.908744688692;580018;7448006;Vårdcentralen Svärdsjö;60.742449907907;15.90868986378
Björkholen;60.943320093266;14.535252018201;562106;7425430;Björkholen;60.943353457864;14.535029519829
Björkliden;60.117270962761;15.18777853893;585196;7447047;Björkliden;60.117279341019;15.187706706528
Björklundavägen;60.118527605036;15.116908075995;585184;7447057;Björklundavägen;60.118545759878;15.116997904244
Björklunds;60.799681758113;14.974041711789;529093;7448337;Björklunds;60.799681253922;14.974023557845
Björkmans väg;59.970853640907;15.761820764897;664011;7444394;Björkmans väg;59.97088931878;15.761803002822
Björknäsvägen;60.127880088889;16.366329048696;584085;7446377;Björknäsvägen;60.127862217329;16.366256860189
Björkriset;60.261242415703;15.893671539869;583235;7446505;Björkriset;60.261224225493;15.893635498392
Björkstigen (Smedjebacken);60.14780951296;15.408626917107;561122;7446861;Björkstigen;60.147835962981;15.408554817202
Björkstigen Grycksbo (Falun);60.689098440428;15.484383507401;580190;7447876;Björkstigen Grycksbo;60.689062323417;15.484438914129
Björktjärn;60.816632443952;15.714069716567;580033;7447998;Björktjärn;60.816677003675;15.714143171308
Björktjärn norra;60.819731992009;15.706195189509;580034;7447997;Björktjärn norra;60.819722680868;15.706232054067
Björktjärn södra;60.814202752949;15.717641343515;580032;7447999;Björktjärn södra;60.814166492288;15.71764152327
Björkvassla;61.131130375235;14.477375825812;562034;7448720;Björkvassla;61.130755051714;14.478505446153
Björkvägen Skolbusshpl (Vansbro);60.503252244216;14.237972025513;521114;7448128;Björkvägen Skolbusshpl;60.503251880562;14.23797242197
Björkås Föreningsbacken;60.095448674229;15.015407974768;585069;7425251;Grängesberg Föreningsbacken;60.095448305189;15.015390306987
Björkåsbacken;60.096929918301;15.01544437764;585122;7447110;Björkåsbacken;60.096885320157;15.015535615621
Björnberget;60.841966680553;15.197442988575;531241;7410144;Björnberget;60.841893833997;15.19729740341
Björnbärsgården;60.13197767137;15.186818818921;585254;7446997;Björnbärsgården;60.131995694501;15.186890717519
Björnhyttan;60.123665038614;15.008776793649;585084;7412976;Björnhyttan;60.123682720831;15.008776660767
Björnhyttan vsk;60.128588471927;15.0065706256;585085;7412975;Björnhyttan vägskäl;60.128246735896;15.006507245027
Björsbo (Falun);60.545261063985;15.542938682973;580323;7447766;Björsbo;60.545233743887;15.54290261098
Björsbo norra (Smedjebacken);59.979430031955;15.694020152062;561057;7446908;Björsbo norra;59.979465773235;15.694091871562
Björsbo södra (Falun);60.538740827118;15.545250703483;580330;7447759;Björsbo södra;60.538776545968;15.5453234388
Björsbo södra (Smedjebacken);59.974380335558;15.70993885217;561056;7446909;Björsbo södra;59.974362111166;15.709867475041
Björsbo trädgård (Smedjebacken);59.974365250468;15.713950110177;561055;7446910;Björsbo trädgård;59.974365054811;15.713986123245
Björsjö bystugan;60.035073722107;15.336804109619;561173;7431632;Björsjö bystugan;60.035046872964;15.336894443266
Björsjö skolan;60.032904311584;15.330035944048;561136;7425222;Björsjö skola;60.032868427348;15.330108469523
Björänget;60.417049463715;15.748598946012;582035;7446787;Björänget;60.417049200409;15.748671682101
Blecket;60.922814269938;15.274591834563;531228;7457427;Blecket;60.922814161992;15.274665715029
Bleckogårdsvägen Backa;60.925069846314;15.115114201001;531222;7448421;Bleckogårdsvägen Backa;60.925051587183;15.115133189651
Blecktorpsvägen;60.541225442984;15.425163491243;581175;7447402;Blecktorpsvägen;60.541270196806;15.425236012888
Blickusvägen (e mot Orsa);61.136780632926;14.638384024651;534013;7448998;Blickusvägen (e mot Orsa);61.13680772495;14.638457466319
Blixbo;60.629281394077;15.82442074747;580025;7425311;Blixbo;60.629316957911;15.824475667314
Blixbo länsvägen;60.629800954417;15.83057782766;580258;7447829;Blixbo länsvägen;60.629764740977;15.83050481438
Blixbo norra;60.633614510446;15.834253280003;580146;7447909;Blixbo norra;60.633623137946;15.834344735595
Blomsterbäcksskolan;60.685941947034;13.715965446883;523140;7448811;Blomsterbäcksskolan;60.686246461837;13.715946130516
Blomstervägen (Avesta);60.156910142517;16.198100005808;584179;7446299;Blomstervägen;60.156919094541;16.198028186778
Blomstervägen (Ludvika);60.127990297558;15.190204118157;585230;7447020;Blomstervägen;60.127972085243;15.190204722648
Blomstervägen (Malung);60.687587493895;13.726514174981;523146;7448806;Blomstervägen;60.687577535844;13.726478645261
Blomsteräng;60.094779883589;15.58949530529;561073;7446897;Blomsteräng;60.094761629029;15.589459683593
Blyberg;61.151167771756;14.183911910153;539086;7413150;Blyberg;61.151150452105;14.184005929151
Blybergsvilan;61.148026735657;14.146947377717;539085;7413151;Blybergsvilan;61.148009212667;14.147022854088
Blyss;61.370175691472;15.745954379814;421006;7411749;Blyss;61.370040569272;15.745805016875
Blå Bandslokalen Äppelbo;60.482422733441;14.026003704449;521047;7448178;Blå Bandslokalen Äppelbo;60.482457763586;14.025965824387
Blåmesvägen;60.990095842816;14.542419753833;562174;7448628;Blåmesvägen;60.990095225915;14.542401535307
Blåtryvägen;61.106737541914;14.641105744019;534116;7422675;Blåtryvägen;61.106763519438;14.64104934432
Blästheden;61.000268706417;13.311615482598;523083;7448863;Blästheden;61.000233360457;13.31167418811
Blötberget centrum;60.124380324496;15.06067699639;585188;7412963;Blötberget centrum;60.124344565246;15.060750048637
Blötberget västra;60.127513470666;15.043442611242;585150;7447087;Blötberget västra;60.127566844668;15.043405682308
Bo Eriks väg;60.46456499482;15.376403581555;581297;7447296;Bo Eriks väg;60.464564444554;15.376331070287
Boberg;60.423731745146;15.617807732133;582054;7446775;Boberg;60.423749600075;15.61795301434
Bobevägen;60.507016676362;14.23824519851;521134;7410156;Vansbro Bobevägen;60.507026352339;14.238336128037
Bockmossen;60.326846559403;15.202479990182;581040;7447507;Bockmossen;60.326837698085;15.202570892213
Boda (Falun);60.721597629196;15.873262916824;580097;7447954;Boda;60.721561389381;15.873262911957
Boda kyrkby (Rättvik);61.011687426987;15.211871005239;531076;7400874;Boda Kyrkby;61.011668736867;15.211797521431
Boda skola (Rättvik);61.007554054802;15.214795199544;531077;7448517;Boda skola;61.007553800876;15.214832300186
Boda såg (Falun);60.718726878893;15.870948637967;580098;7447953;Boda såg;60.718690674763;15.870875357209
Boda vsk (Rättvik);61.004785437397;15.217878221833;531119;7448489;Boda vsk;61.004784860785;15.217841385543
Bodarna (Gagnef);60.541509779268;15.127955037541;526103;7448035;Bodarna;60.541527019296;15.127882013225
Bodarna (Hedemora);60.343707827359;15.926669696773;583179;7446553;Bodarna;60.343680658505;15.926633496249
Bodarna (Säter);60.422079247267;15.659786597233;582043;7425209;Bodarne skolan;60.422096818785;15.659714056041
Bodarna skolan (Säter);60.422079247267;15.659786597233;582059;7425209;Bodarne skolan;60.422096818785;15.659714056041
Bodarna vsk (Falun);60.740829707464;15.466578033772;580143;7447912;Bodarna vsk;60.740802238138;15.466505124391
Bodlindor;60.793047481238;15.048015588534;529075;7448352;Bodlindor;60.793029147568;15.048016210997
Boggån;61.196196523229;14.081189967753;539167;7449003;Boggån;61.196196728054;14.081246026493
Boisbacken;60.912938435567;13.367331962356;523074;7448872;Boisbacken;60.912902752011;13.367372038343
Bokbindarevägen;60.593472562809;15.707407079845;580425;7447689;Bokbindarevägen;60.593472290668;15.707480192502
Bollsjön;60.166726695672;16.308054224406;584107;7446358;Bollsjön;60.166690697752;16.308017734164
Bomanstjärn;60.038717211533;15.321698794284;561080;7446892;Bomanstjärn;60.038762107864;15.321770159181
Bomled;60.501764138163;14.253496391896;521108;7448133;Bomled;60.501728100489;14.253516692867
Bomsarvet;60.545146234692;15.424716503685;581174;7447403;Bomsarvet;60.545127748947;15.424644002494
Bondarvet;60.237129353401;16.281584878743;584066;7446394;Bondarvet;60.237155773257;16.281657541703
Bondbo;60.209766420093;16.066800559251;583209;7446526;Bondbo;60.209748185035;16.066818564254
Bonden;60.721731559268;13.551176295817;523164;7448790;Bonden;60.721732355309;13.551250028078
Bondkroken;60.832737931244;15.025086543621;529081;7448348;Bondkroken;60.832746083396;15.025012986781
Bondpä östra Utsjö;60.637034282441;13.745127646934;523203;7448756;Bondpä östra Utsjö;60.637051247813;13.745090454012
Bonäs norra;61.08532168818;14.487637380397;562050;7448707;Bonäs norra;61.085339168;14.487636877122
Bonäs skolan;61.072050673842;14.488930338052;562054;7413103;Bonäs skolan;61.07206815617;14.488929838481
Bonäs södra;61.066504295965;14.488975481085;562056;7448703;Bonäs södra;61.066503835712;14.488975728125
Bonäsgården;61.062560130755;14.489491163707;562057;7448702;Bonäsgården;61.062559851723;14.489509924643
Borbosgatan;61.12898995595;14.62594016171;534059;7448966;Borbosgatan;61.128980519145;14.625940705404
Borgsheden;60.497668780909;14.932464813228;526029;7448091;Borgsheden;60.497668443339;14.932465079406
Borlänge centrum;60.485607248397;15.431509126361;581254;7412993;Borlänge centrum;60.48564288093;15.431527080201
Borlänge resecentrum;60.482632623574;15.426960365144;581386;7400160;Borlänge Centralstation;60.483535598637;15.425840575237
Borlänge sjukhus;60.502751519941;15.465723733208;581344;7447250;Borlänge sjukhus;60.503237230288;15.466264755198
Borlänge TÅG;0.0058704365823196;-2.0452751445467;;;not found;;
Born (Orsa);61.138626127813;14.642158747958;534042;7413135;Born;61.138818389396;14.642653105063
Born (Rättvik);60.958781524028;15.267125333059;531056;7470552;Born;60.958771849293;15.26705178809
Born (Smedjebacken);60.155182617968;15.263159486358;561169;7446822;Born;60.155218252855;15.263159147334
Born Edsbyn;61.376808683579;15.777588089798;421091;7407138;Born;61.373904281969;15.758327803248
Bortasgattu Siljansnäs;60.772009387557;14.86885315899;529034;7448378;Bortasgattu Siljansnäs;60.771973104261;14.868854440832
Botlandet;60.2086964584;14.944724888639;585005;7447204;Botlandet;60.20873171999;14.944670151787
Bovägen Bjursås;60.740486392416;15.46216354515;580178;7447886;Bovägen Bjursås;60.740521788762;15.462108300486
Brafvägen;61.135887452421;14.606061544481;534053;7448971;Brafvägen;61.135895463825;14.606005744326
Brandstationen (Malung);60.689316088069;13.728563054547;523141;7448810;Brandstationen;60.689315666512;13.728563525104
Brandstationen Dala-Järna;60.546201744494;14.367627428509;521097;7425323;Dala-Järna brandstation;60.546183825485;14.367665022844
Brandstationen Falun;60.626881939769;15.61337189248;580609;7435884;Brandstationen;60.626845600307;15.61329916431
Brandvägen Holen;61.247517301833;14.036923098986;539145;7449017;Brandvägen Holen;61.247507328934;14.036886658399
Brattberget;60.741132749515;16.071259834778;580007;7448016;Brattberget;60.741150289154;16.071296682087
Bredgrind;60.196863713974;16.46285815202;584231;7410111;Bredgrind;60.196891564392;16.462624388145
Bredgrind södra;60.195699506239;16.45868840846;584253;7410199;Bredgrind södra;60.195744412304;16.45863527095
Brillingsnäs;60.165865970527;16.342209209887;584099;7446364;Brillingsnäs;60.165928489873;16.342228317236
Brinellskolan;59.998945866591;15.802928490257;669010;7444786;Brinellskolan;59.998990519223;15.802803223641
Brinkvägen;61.003232772282;14.509935464862;562188;7448619;Brinkvägen;61.003249913308;14.509898032007
Britsarvsgården;60.621237666026;15.626903140799;580429;7447685;Britsarvsgården;60.62121057939;15.62703126796
Britsarvsskolan;60.623084547617;15.618947327666;580435;7447679;Britsarvsskolan;60.623084264362;15.618983986238
Britsarvsskolan (skolbusshpl.);60.623127508668;15.624061467962;580440;7447676;Britsarvsskolan (skolbusshpl.);60.623091325298;15.624098328178
Brittasvägen;60.679242882035;15.086851791399;529248;7422672;Brittasvägen;60.679260858535;15.086924785133
Bro;60.459058770849;15.464854682298;581069;7447486;Bro;60.459076082916;15.464727460422
Broby Sunnansjö;60.210657879041;14.959391515479;585025;7447186;Broby Sunnansjö;60.21062181255;14.959410774575
Broddvägen;60.288338946049;15.962062917498;583144;7446583;Broddvägen;60.288356651874;15.962045043085
Brogården (Smedjebacken);60.145783796649;15.372326285319;561106;7446874;Brogården;60.145747871624;15.372398992869
Bromsvägen;60.12016773358;15.172093625768;585243;7447007;Bromsvägen;60.120167902646;15.172183824881
Brostugan;60.512493383384;14.24138519588;521112;7448130;Brostugan;60.512537449176;14.241347033549
Brovallen;60.106297088202;16.297641930669;584096;7446367;Brovallen;60.106324056002;16.297570508038
Brovallen norra;60.106905674156;16.305310228123;584095;7446368;Brovallen norra;60.106923400043;16.305310587121
Brovägen Söderbärke;60.074059271027;15.575872956027;561076;7446894;Brovägen Söderbärke;60.074095056231;15.575944759757
Broåkern;61.012328381462;14.568606936249;562262;7433635;Broåkern;61.012328782646;14.568699602205
Brudtallsvägen;61.015247769697;14.536981459727;562214;7448599;Brudtallsvägen;61.015265091257;14.536962505957
Brudviksgården;60.906968603889;15.054949907219;531242;7430704;Brudviksgården;60.906958915956;15.054895016661
Bruket;60.960872175332;13.896110165983;562235;7448583;Bruket;60.960853244063;13.896074728164
Bruksvägen Holen;61.250737190943;14.049151913175;539143;7449019;Bruksvägen Holen;61.250719216713;14.049190442293
Brunflo jvstn;63.075963438801;14.832594077403;591001;7400526;Brunflo station;63.075860413066;14.832062809172
Brunna;60.265016304933;16.00597836749;583281;7446472;Brunna;60.265051891029;16.006014832166
Brunnsberg;61.283978316163;13.922838141742;539110;7449042;Brunnsberg;61.283942943883;13.922915148593
Brunnsvik folkhögskolan;60.203647712911;15.129747657924;585215;7425245;Brunnsvik folkhögskolan;60.203611904114;15.129820790295
Brunnsvägen (Avesta);60.160117756523;16.193906219897;584180;7446298;Brunnsvägen;60.160162343056;16.193924854289
Brunnsvägen (Ludvika);60.124829616204;15.189939375916;585250;7447001;Brunnsvägen;60.124829186849;15.189903669712
Brunnsäng;61.282582761425;13.93616533279;539112;7449040;Brunnsäng;61.282601197201;13.936239117314
Brusala;60.55788420383;15.425587290656;580397;7447713;Brusala;60.557874898798;15.425587566522
Brustorpet Söderbärke;60.064912583734;15.551103145674;561062;7446906;Brustorpet Söderbärke;60.064894288062;15.551049631188
Bryggargatan;60.14447948378;16.172860443049;584018;7446434;Bryggargatan;60.144515149855;16.172860946236
Bryggeriet Fors (Avesta);60.212924249212;16.305549042161;584110;7446355;Bryggeriet Fors;60.212924278922;16.305476969985
Bryggerivägen;61.008232189053;14.510877937481;562192;7448615;Bryggerivägen;61.008195142765;14.510805728074
Brykthed;60.971374074385;14.540614414906;562016;7448732;Brykthed;60.971409002381;14.540557863735
Brändanvägen;61.15183870457;14.748369455724;534092;7448943;Brändanvägen;61.151802642193;14.748407973626
Brändollesvägen Rönnäs;60.705122764615;15.116801087806;529171;7448273;Brändollesvägen Rönnäs;60.70508621814;15.116747125119
Brännan;60.72055529632;15.802542044838;580116;7447937;Brännan;60.720590851063;15.80254212232
Brättbacken;60.115120751627;15.560048290273;561069;7446900;Brättbacken;60.115084534013;15.560012799109
Brätthällsgatan;60.503966361841;15.45999659384;581340;7447254;Brätthällsgatan;60.503939306586;15.460069846327
Brötjärna;60.505310471695;15.018091638928;526042;7413042;Bröttjärna;60.505292617474;15.018165114626
Bu norra;60.891625185579;13.396343386327;523100;7448850;Bu norra;60.891605453834;13.396271632746
Bu södra;60.887797880372;13.402730946513;523101;7448849;Bu södra;60.887768857874;13.402641471328
Budsäl;60.918320114477;14.460122128086;562014;7448734;Budsäl;60.918301183491;14.460067879714
Bullerforsen;60.511198911129;15.442626785924;581335;7447259;Bullerforsen;60.511162888822;15.442700171447
Bullermyren centrum;60.49604406728;15.421636534927;581267;7447326;Bullermyren centrum;60.49602564069;15.421582346756
Bultbo;60.762077182483;15.409319435559;580492;7430337;Bultbo;60.762095036334;15.40941107533
Bultbo Säter;60.424576189636;15.849014460417;582075;7446760;Bultbo;60.424593835557;15.849050910791
Bunkris;61.43116034285;13.469608775646;539082;7449061;Bunkris;61.43113349961;13.469648583006
Burens norra;60.176105908963;15.159430384625;585152;7447085;Burens norra;60.176114435991;15.159394445324
Burens södra;60.17278643399;15.16158545949;585151;7447086;Burens södra;60.172804287539;15.161621404321
Burtsmyren;61.069065682056;14.646991334233;534014;7448997;Burtsmyren;61.069029975352;14.647066936017
Burängsberg;60.203913076121;14.850500196995;585023;7447187;Burängsberg;60.203957530401;14.850481182495
Buskoviusskolan Särna;61.693017761545;13.14761516687;539053;7425465;Särna Buskoviusskolan;61.692989869276;13.148525327439
Busktäkt;60.536642326877;15.751811059238;580255;7447832;Busktäkt;60.536686856687;15.75173823464
Buskåker;60.448280456303;15.479483659572;581071;7447485;Buskåker;60.448253400382;15.479556775555
Bussdepån Vansbro;60.509788965359;14.208600301;521034;7448132;Västkustvägen;60.50991306766;14.209249972269
Bussupmyren;60.583952350536;13.827348495663;523207;7448752;Bussupmyren;60.58397832354;13.827310851523
By (Avesta);60.202287110932;16.467853130205;584252;7410204;By Kyrkby;60.202251337083;16.46778033648
By (Gagnef);60.526948312702;15.058361334398;526093;7448041;By;60.526975304734;15.058433792343
By Hembygdsgården (Avesta);60.192453478209;16.467114448122;584254;7410198;By Hembygdsgården;60.192471553998;16.467042760743
By Kyrkby skolan;60.204064164955;16.476815156068;584250;7412910;By kyrkby skolan;60.204090763421;16.476833783767
Bya gamla skola;60.298451949449;15.864167034536;583114;7446610;Bya gamla skola;60.298487540149;15.8642576524
Bygatan (Mora);61.00480726609;14.524420468604;562190;7448617;Bygatan;61.004735218279;14.52444209504
Bygatan Säter;60.351796628612;15.740273227086;582024;7446797;Bygatan Säter;60.351796344695;15.74027337383
Bygatto;60.572821802411;14.311668630833;521070;7448162;Bygatto;60.572858334338;14.311758500191
Bygdegården Vika (Mora);60.950198904347;14.459846195708;562073;7448689;Bygdegården Vika;60.950162392244;14.459829540403
Bygdegården Västerby (Hedemora);60.308421710037;15.931713518696;583173;7446558;Bygdegården Västerby;60.308403455408;15.931749750153
Bygdegården Östanvik (Rättvik);61.157390882257;15.21481609409;531030;7425412;Östanvik Bygdegård;61.157426335657;15.214815523715
Bygdegårdsvägen;61.027988709915;14.495235035673;562203;7448607;Bygdegårdsvägen;61.027969953935;14.495199043994
Byggevallen;61.633259142199;13.133520185209;539066;7449071;Byggevallen;61.633257386949;13.133464031294
Byggmästargränd;60.871162359898;15.107167798461;531153;7425385;Rättvik Byggmästargränd;60.871342968073;15.107458542395
Byggningen (Hedemora);60.292482163403;15.884208186237;583255;7446490;Byggningen;60.292463986322;15.88413595108
Bygärdet Lima;60.931945956682;13.36384832848;523096;7448852;Bygärdet;60.931964067293;13.363884307527
Bysjön (Hedemora);60.441821996548;16.131611970124;583047;7446666;Bysjön;60.441794564749;16.131702588032
Bysjön (Rättvik);61.054369567666;15.189743840399;531067;7448524;Bysjön;61.054377947345;15.189706767559
Bystugan Almo;60.753543459309;14.85174789639;529254;7414952;Bystugan Almo;60.753543333009;14.851784810829
Bystugan Gulleråsen;61.066202566784;15.180994317405;531064;7448526;Bystugan Gulleråsen;61.066184020715;15.180957758144
Bystugan Hornberga;61.197249537884;14.613101692773;534120;7422715;Bystugan Hornberga;61.197258523953;14.613157328928
Bystugan Nedre Gärdsjö;60.937627911414;15.223858353995;531232;7448415;Bystugan Nedre Gärdsjö;60.937591691859;15.223877596055
Bystugan Näset;61.25645690255;14.065307345463;539138;7449023;Bystugan Näset;61.256491786107;14.065268396615
Bystugan Röjeråsen;60.944308090928;14.980564255022;531196;7448437;Bystugan Röjeråsen;60.944307788415;14.980582885355
Bystugan Rönnäs;60.70255010913;15.133318065343;529168;7448276;Bystugan Rönnäs;60.702567506599;15.133281269857
Bystugan Skålö;60.568853838434;14.298847980111;521067;7448164;Bystugan Skålö;60.568853052834;14.298811897241
Bystugan Vad;60.028435538613;15.648689949331;561051;7421789;Vad bystugan;60.028335331333;15.647650316311
Bystugan Vad tågbusshpl;60.028344430976;15.647560388349;590026;7421789;Vad bystugan;60.028335331333;15.647650316311
Bystugan Vikarbyn;60.912091925403;15.024767412062;531137;7448478;Bystugan Vikarbyn;60.912082329904;15.02473095489
Bystugevägen Rot;61.256855715213;14.043368223711;539135;7449026;Bystugevägen Rot;61.256838225304;14.043444009981
Byxtorget;61.121334659886;14.620863435709;534076;7448953;Byxtorget;61.121307117254;14.620846107001
Båtstavägen;60.506835036112;15.375589089844;581124;7447444;Båtstavägen;60.506834712805;15.375589276444
Bäck (Mora);61.138234988737;14.435602840133;562039;7448717;Bäck;61.138226293316;14.435677698592
Bäck (Rättvik);60.847804305672;15.116507348714;531106;7425396;Bäck;60.847786531233;15.116618266209
Bäcka (Orsa);61.130490397042;14.541695739659;534021;7425449;Bäcka;61.13046231844;14.541622826389
Bäckan (Gagnef);60.551297998824;15.163509033209;526067;7448060;Bäckan;60.551306984974;15.16358196801
Bäckarbo;60.256457306274;15.895609378939;583240;7446502;Bäckarbo;60.256466018928;15.895609537303
Bäckbyn;60.507678319846;14.831630152884;526026;7448094;Bäckbyn;60.507651720312;14.831722234218
Bäckeby norra;60.120298966439;16.371884116841;584088;7446374;Bäckeby norra;60.120298742056;16.371884192023
Bäckeby södra;60.11517712971;16.369008752322;584089;7446373;Bäckeby södra;60.115194473955;16.369099048563
Bäckehagen;60.645571121128;15.581236460733;580360;7447739;Bäckehagen;60.645552770699;15.581200159974
Bäckelund;60.477382105447;15.408437736206;581208;7447370;Bäckelund;60.477408983813;15.408528507982
Bäckens;60.692083184255;16.307667177849;580009;7408836;Bäckens;60.692100470311;16.307758981367
Bäckesveden;60.23488949699;15.026255508184;585044;7447169;Bäckesveden;60.23490737146;15.026291461474
Bäckgårdarna;60.585670309499;15.100719858532;526046;7448078;Bäckgårdarna;60.585633873108;15.100684377997
Bäcklins;60.600234623296;15.767583814275;580317;7447771;Bäcklins;60.600234277134;15.767510909722
Bäckmyra;61.106097669588;15.166447039972;531055;7448531;Bäckmyra;61.106142102713;15.166446253219
Bäckstigen;60.501855121272;15.487988695501;581218;7447362;Bäckstigen;60.501854672658;15.487934272319
Bältarbo;60.301351411572;15.984768286329;583122;7446602;Bältarbo;60.301431507664;15.985076297507
Bäsinge;60.13006137979;16.368399224074;584084;7446378;Bäsinge;60.130096824651;16.368453883348
Bäsna affären;60.536393254306;15.20262562601;526100;7413036;Bäsna affären;60.5364111153;15.202680151318
Bävervägen Bjursås;60.73809365676;15.456579844831;580179;7447885;Bävervägen Bjursås;60.73808446548;15.456635070831
Böle (Falun);60.77656457592;15.927940655107;580081;7425308;Böle;60.776537353933;15.92788554681
Böle norra (Malung);60.658921879874;13.720772100829;523128;7448823;Böle norra;60.658940256046;13.720826239475
Böle södra (Malung);60.65265600577;13.726005465415;523126;7448825;Böle södra;60.652646339042;13.725988251037
Bölsveden;60.780814484819;15.911473695522;580079;7447970;Bölsveden;60.780858936041;15.911565673099
Bölvägen;60.997667295624;14.524893050477;562185;7425111;Mora Bölvägen;60.9976490811;14.524912503571
Centralskolan Fors;60.205224722029;16.305161556969;584115;7425073;Fors Centralskolan;60.205206463698;16.305179391088
Centralskolan Fors (skolhpl);60.205616402714;16.303634663656;584245;7413173;Fors Centralskolan skolhpl;60.205660631378;16.303743611958
Centrumvägen Grycksbo;60.691726488614;15.487487344233;580196;7447872;Centrumvägen Grycksbo;60.691762122786;15.487523736474
Coop Forum Borlänge;60.462728315434;15.475030852921;581357;7447238;Coop Forum Borlänge;60.462243407196;15.475054140599
Cykelvägen Selja;61.021138275026;14.470306902649;562067;7448695;Cykelvägen Selja;61.021173892337;14.470324142638
Centralskolan Fors;60.205224722029;16.305161556969;584115;7425073;Fors Centralskolan;60.205206463698;16.305179391088
Centralskolan Fors (skolhpl);60.205616402714;16.303634663656;584245;7413173;Fors Centralskolan skolhpl;60.205660631378;16.303743611958
Centrumvägen Grycksbo;60.691726488614;15.487487344233;580196;7447872;Centrumvägen Grycksbo;60.691762122786;15.487523736474
Coop Forum Borlänge;60.462728315434;15.475030852921;581357;7447238;Coop Forum Borlänge;60.462243407196;15.475054140599
Cykelvägen Selja;61.021138275026;14.470306902649;562067;7448695;Cykelvägen Selja;61.021173892337;14.470324142638
Dagkarlsbo;60.110824182112;15.18730602613;585178;7447062;Dagkarlsbo;60.110814863605;15.187288485894
Dahlandergymnasiet;60.34172146583;15.7163546366;582159;7435836;Dahlandergymnasiet;60.341730182442;15.716390980214
Dahlanders väg;60.343122838328;15.751699356171;582016;7446806;Dahlanders väg;60.343095630832;15.751699547181
Dala Airport;60.430010420169;15.507647489914;581078;7424377;Dala Airport;60.43001011487;15.507647664965
Dala Elnät;60.351379722763;15.751087815002;582012;7446810;Dala Elnät;60.351352536411;15.751142345834
Dala Hus Linghed;60.783556518307;15.876696415272;580073;7425309;Linghed Dala Hus;60.78357411604;15.876696514009
Dala Lift Bengtsheden;60.697214743106;15.870685752371;580105;7447947;Dala Lift Bengtsheden;60.697331005955;15.870832521195
Dala-Floda Ica;60.509421304772;14.801597467694;526023;7413044;Dala-Floda ICA;60.509403287197;14.801634709161
Dala-Floda TÅG;0.0058704365823196;-2.0452751445467;;;not found;;
Dalagatan;61.008127508088;14.542424090177;562216;7448598;Dalagatan;61.008136033087;14.542423982746
Dalahästen;60.152210243478;16.200024528304;584024;7424290;Avesta väg 70 Dalahästen;60.152156370988;16.199951969356
Dala-Järna centrum;60.548038537419;14.365650336622;521096;7413049;Dala-Järna centrum;60.548046355756;14.365577432279
Dala-Järna IP;60.540080817474;14.392935795091;521110;7448131;Dala-Järna IP;60.540080066783;14.392899729203
Dala-Järna jvstn;60.547398546155;14.362908455701;590013;7400398;Dala-Järna station;60.547776887052;14.362235809195
Dalatrafiks bussdepå Leksand;60.746980974534;15.000638327824;529001;7448408;Busslink Leksand O Samhall Lsd;60.746980924875;15.000693544782
Dalatrafiks bussdepå Malung;60.688805164241;13.717647146192;523193;7448764;Dalatrafiks bussdepå Malung;60.688609712147;13.717806740084
Dalaträ Mockfjärd;60.496108449286;14.97051653453;526039;7448083;Dalaträ Mockfjärd;60.496206941163;14.970532445609
Dalavallen(e);60.603618488582;15.64688021196;580539;7447584;Dalavallen(e);60.603645039306;15.646843695983
Dalbyn;61.117636083439;15.163987717402;531046;7425410;Dalbyn;61.117617699639;15.163988199445
Dalbyn södra;61.11333678569;15.163870908511;531007;7448568;Dalbyn södra;61.113309517137;15.16389012008
Dagkarlsbo;60.110824182112;15.18730602613;585178;7447062;Dagkarlsbo;60.110814863605;15.187288485894
Dahlandergymnasiet;60.34172146583;15.7163546366;582159;7435836;Dahlandergymnasiet;60.341730182442;15.716390980214
Dahlanders väg;60.343122838328;15.751699356171;582016;7446806;Dahlanders väg;60.343095630832;15.751699547181
Dala Airport;60.430010420169;15.507647489914;581078;7424377;Dala Airport;60.43001011487;15.507647664965
Dala Elnät;60.351379722763;15.751087815002;582012;7446810;Dala Elnät;60.351352536411;15.751142345834
Dala Hus Linghed;60.783556518307;15.876696415272;580073;7425309;Linghed Dala Hus;60.78357411604;15.876696514009
Dala Lift Bengtsheden;60.697214743106;15.870685752371;580105;7447947;Dala Lift Bengtsheden;60.697331005955;15.870832521195
Dala-Floda Ica;60.509421304772;14.801597467694;526023;7413044;Dala-Floda ICA;60.509403287197;14.801634709161
Dala-Floda TÅG;0.0058704365823196;-2.0452751445467;;;not found;;
Dalagatan;61.008127508088;14.542424090177;562216;7448598;Dalagatan;61.008136033087;14.542423982746
Dalahästen;60.152210243478;16.200024528304;584024;7424290;Avesta väg 70 Dalahästen;60.152156370988;16.199951969356
Dala-Järna centrum;60.548038537419;14.365650336622;521096;7413049;Dala-Järna centrum;60.548046355756;14.365577432279
Dala-Järna IP;60.540080817474;14.392935795091;521110;7448131;Dala-Järna IP;60.540080066783;14.392899729203
Dala-Järna jvstn;60.547398546155;14.362908455701;590013;7400398;Dala-Järna station;60.547776887052;14.362235809195
Dalatrafiks bussdepå Leksand;60.746980974534;15.000638327824;529001;7448408;Busslink Leksand O Samhall Lsd;60.746980924875;15.000693544782
Dalatrafiks bussdepå Malung;60.688805164241;13.717647146192;523193;7448764;Dalatrafiks bussdepå Malung;60.688609712147;13.717806740084
Dalaträ Mockfjärd;60.496108449286;14.97051653453;526039;7448083;Dalaträ Mockfjärd;60.496206941163;14.970532445609
Dalavallen(e);60.603618488582;15.64688021196;580539;7447584;Dalavallen(e);60.603645039306;15.646843695983
Dalbyn;61.117636083439;15.163987717402;531046;7425410;Dalbyn;61.117617699639;15.163988199445
Dalbyn södra;61.11333678569;15.163870908511;531007;7448568;Dalbyn södra;61.113309517137;15.16389012008
Dalecarlia;60.820655934449;14.987115938014;529091;7448339;Dalecarlia;60.820673263998;14.987078930944
Dalfors;61.214658760789;15.404191919313;531018;7401446;Dalfors;61.214658595458;15.404285012526
Dalhedsgatan;60.482248934218;15.467830047472;581200;7447378;Dalhedsgatan;60.482239459111;15.467757571101
Daljunkaregatan;60.609680803891;15.635822444106;580582;7447548;Daljunkaregatan;60.609644619929;15.635859276067
Daljunkaregården;60.611006445506;15.633770465168;580581;7447549;Daljunkaregården;60.610988258385;15.633843722632
Dalkarlsbo;60.254466855581;15.905356320343;583241;7446501;Dalkarlsbo;60.254484544149;15.905356507149
Dalkullan;60.40211742189;15.8774311429;582084;7446755;Dalkullan;60.402144020562;15.877503885244
Dalstuga (Rättvik);61.06111233538;15.69138009303;531078;7470549;Dalstuga;61.061120921337;15.691398619547
Dalstugan (Borlänge);60.530258962582;15.315482778633;581170;7447406;Dalstugan;60.530231910094;15.315538017479
Dalsåkersvägen;60.870179466542;15.113208464462;531110;7448497;Dalsåkersvägen;60.870205896141;15.113189649033
Dalviks Kvarn;60.468442640092;15.650452027878;581063;7425277;Dalvik kvarn;60.468397415967;15.650416031227
Dalvägen Grycksbo;60.692854308255;15.478799470656;580188;7447878;Dalvägen Grycksbo;60.692818326881;15.47890980486
Dammen (Hedemora);60.360159173742;15.926784696089;583118;7446606;Dammen;60.360194877177;15.926694351666
Dammen (Malung);60.730512984609;13.51836564734;523159;7425439;Västra Fors Dammen;60.730512545216;13.518366155623
Dammgatan;60.482756413363;15.410863535261;581416;7425097;Borlänge Jaxrondellen;60.483593943246;15.40590656234
Dammvägen Bjursås;60.738672516816;15.441413470216;580182;7447883;Dammvägen Bjursås;60.738672155939;15.44141360945
Dammänget;60.714061026812;15.090946199938;529174;7448270;Dammänget;60.714105330627;15.090908775047
Danholn norra;60.622452822883;15.80578636313;580260;7447827;Danholn norra;60.622497369609;15.805841254691
Danholn skolan;60.62149225429;15.797804702822;580261;7413014;Danholn skolan;60.621509876372;15.797804796034
Danholn södra;60.615837089623;15.787470174007;580263;7447825;Danholn södra;60.61585470199;15.787397218012
Daniels;60.730225998557;15.839065462482;580111;7447942;Daniels;60.730189769461;15.839010520845
Davidshyttevägen;60.249783860934;15.959767067768;583247;7446497;Davidshyttevägen;60.249765734549;15.959694879021
Debattvägen;60.464990266219;15.467973355567;581260;7447332;Debattvägen;60.46500781091;15.467936992801
Dianavägen;60.121503803394;15.192771631826;585249;7447002;Dianavägen;60.121521825342;15.19284351122
Dicka(ej stolpe);60.187167499315;16.290216642145;584004;7425154;Dicka;60.1871310322;16.290306304526
Digerberg (Älvdalen);61.278321788802;13.839230489157;539101;7449049;Digerberg;61.278358479207;13.839321735732
Digerbergets skola (Orsa);61.08805571492;14.638493470336;534007;7445820;Digerbergets skola;61.088074003196;14.638585669945
Dikesvägen Husby;60.393629303846;15.994758749485;583009;7446696;Dikesvägen Husby;60.393593018756;15.99483118811
Dillstigen;60.127416227539;15.205920797826;585234;7447016;Dillstigen;60.127415720971;15.20586709634
Dingtuna TÅG;0.0058704365823196;-2.0452751445467;;;not found;;
Djupdalen;60.376962908304;15.913613528363;582078;7446759;Djupdalen;60.376899727314;15.913704074264
Djupsjön;60.599934480026;15.066329764838;526044;7448080;Djupsjön;60.599898737545;15.066422067865
Djupvik;60.188386224094;16.470961988232;584260;7410185;Djupvik;60.188413096843;16.470926538032
Djura Kafet;60.611225226086;15.00254558004;529237;7425335;Djura Kaféet;60.611287029649;15.002434711362
Djura skolan;60.613154519104;15.00397673322;529234;7448222;Djura skolan;60.613181413451;15.004031075237
Djura vsk rv 70;60.60490175728;15.052578743058;526076;7448054;Djura vsk rv 70;60.60484776635;15.052616734168
Djurheden;60.619979381656;15.006090355299;529232;7448224;Djurheden;60.620014701813;15.006053176375
Djurmo gamla skolan;60.551477958468;15.192229304139;526116;7423230;Djurmo väg 70 Gamla skolan;60.551442393231;15.192375989557
Djurmoskolan;60.552170123679;15.204300116915;526117;7448024;Djurmoskolan;60.552124503742;15.204210037412
Djurmovägen Djurmo;60.550799440975;15.183311723199;526115;7448025;Djurmovägen Djurmo;60.550772859652;15.183458244339
Djurås centrum;60.56024147179;15.131591769887;526123;7410113;Djurås centrum;60.560213747278;15.131501407603
Djurås jvstn;60.560190666274;15.137554290326;526059;7400303;Djurås station;60.560177572076;15.138593926777
Djurås TÅG;0.0058704365823196;-2.0452751445467;;;not found;;
Djuråsbyvägen;60.552689420165;15.143359356485;526124;7422663;Djuråsbyvägen;60.552733770816;15.143322209202
Djuråsskolan (skolbusshpl);60.556605285096;15.133125807891;526060;7448067;Djuråsskolan (skolbusshpl);60.556632326013;15.133216604201
Djuråsvägen Myrheden;60.533275266047;15.130659291518;526096;7448039;Djuråsvägen Myrheden;60.533283627059;15.130604688796
Djörkhyttan;60.246092811784;15.953791536989;583246;7425167;Djörkhyttan;60.246092633058;15.953719441767
Domaregatan(e);60.483648123749;15.443571753508;581238;7447348;Domaregatan(e);60.483611858341;15.443554145805
Domarhagsskolan;60.143246186156;16.180586333646;584158;7446314;Domarhagsskolan;60.143236976505;16.180586334281
Domnarvet centrum;60.499925288346;15.455672545295;581343;7447251;Domnarvet centrum;60.499889261213;15.455745890454
Domnarvets skola;60.50162963379;15.455326586723;581342;7447252;Domnarvets skola;60.501593510869;15.455363542183
Domnarvsforsen;60.496035354077;15.447508925323;581225;7447357;Domnarvsforsen;60.496007866331;15.447418429993
Domnarvsgården;60.495410930452;15.442294164735;581241;7447346;Domnarvsgården;60.495365340647;15.442149297688
Domnarvsrondellen;60.498383966601;15.45658077193;581347;7425254;Borlänge Domnarvsrondellen;60.498365459706;15.456490163858
Domnarvsvallen (e);60.495347058309;15.432179068739;581152;7412994;Borlänge Domnarvsvallen;60.495337662267;15.432142964044
Dormsjöskolan;60.360582784261;16.190757220553;583068;7446647;Dormsjöskolan;60.36059169853;16.190684925127
Drabantgatan;60.44252740125;15.48687981747;581084;7425272;Romme Drabantgatan;60.44252709306;15.486879994283
Drejargatan Säter;60.343343149337;15.765371297921;582007;7446815;Drejargatan Säter;60.343369820968;15.765461953047
Drevdagen Skolan;61.760941329119;12.402605446002;539034;7425471;Drevdagen skolan;61.760905231726;12.402628781153
Drillstigen(e);60.595204863467;15.643381201167;580499;7447620;Drillstigen(e);60.595204579172;15.643417828461
Drosbacken;61.812266755641;12.471857535803;539036;7425469;Drosbacken;61.812276811961;12.471932740962
Drottningvägen Grycksbo;60.687097012599;15.495769058783;580197;7447871;Drottningvägen Grycksbo;60.687113847937;15.49543959506
Drändjgatan Färnäs;60.997004861618;14.639823104928;562133;7448653;Drändjgatan Färnäs;60.996985517624;14.639713140339
Dunkarbacken (skolbuss);60.558046483995;15.084258717651;526053;7448071;Dunkarbacken (skolbuss);60.558082431567;15.084331057354
Dunkholsvägen;60.747690589464;14.861750732948;529022;7448389;Dunkholsvägen;60.74768968741;14.861677636759
Duvas gård;60.430579999555;15.943041999085;583107;7446616;Duvas gård;60.430543734744;15.943114580176
Duvnäs (Borlänge);60.53914381559;15.284576958058;581168;7447408;Duvnäs;60.539089778561;15.284614457239
Duvnäs (Vansbro);60.535112020959;14.307686848106;521056;7448173;Duvnäs;60.535111449214;14.30766901629
Duvåker;60.379130867564;16.066193689475;583019;7446686;Duvåker;60.379113029328;16.065994220288
Dynamiten Grängesberg;60.071084289782;14.996989113749;585114;7447118;Dynamiten Grängesberg;60.071104946847;14.997473844083
Dyrsmedsgatan;60.874462175188;15.120553159996;531181;7448445;Dyrsmedsgatan;60.874462246939;15.120645369725
Dysberg nedre;61.148625867859;13.936816332377;539124;7449033;Dysberg nedre;61.14858846078;13.936744554385
Dysberg vsk.;61.148112511171;13.950386701223;539182;7410118;Dysberg vägskäl;61.148147121512;13.950329250504
Dysberg övre;61.151805610628;13.936962579502;539154;7425451;Dysberg övre;61.151822531533;13.936924730579
Däljestigen;60.274931480471;15.975462243774;583303;7446455;Däljestigen(e mot Hedemora);60.274967026156;15.975534832016
Dössjonsvägen;60.991519591254;14.533474748939;562161;7448638;Dössjonsvägen;60.9915353474;14.53328956379
Edet;60.602545425783;13.81047032765;523144;7448807;Edet;60.602580903175;13.810468580151
Edhult;60.624265391064;15.815777985233;580259;7447828;Edhult;60.624291993272;15.815705022532
Edkallvejan Nusnäs;60.974103719211;14.640255889082;562128;7448658;Edkallvejan Nusnäs;60.97392479219;14.640373474946
Edsbyn busstn;61.369775820762;15.817424245564;421021;7400590;Edsbyn busstation;61.372745526109;15.819295381285
Edsbyverken;61.373334873448;15.839231484902;421022;7418540;Edsbyn Svenska Fönster;61.374269075888;15.832948529469
Edshult;60.723691535897;15.002284387417;529157;7425344;Leksand Edshult;60.723655814375;15.002377106926
Egnahemsvägen Vikmanshyttan;60.298561471585;15.828215756457;583250;7446495;Egnahemsvägen Vikmanshyttan;60.298588116317;15.828270166624
Ekenstorg Rönnäs;60.70421901038;15.122588813608;529170;7448274;Ekenstorg Rönnäs;60.704218829686;15.122625634259
Ekorrbacksvägen;59.981595789721;15.798667404886;669005;7444782;Ekorrbacksvägen;59.981667376466;15.79868548366
Ekvägen (Falun);60.590054252483;15.697272215058;580525;7447596;Ekvägen;60.590053926593;15.697272334537
Eldano;60.101709242291;15.584236651876;561019;7446940;Eldano;60.101753812863;15.584200602742
Elim Järnsta;60.246153403547;14.950404119185;585033;7447179;Elim Järnsta;60.246197751178;14.950367138848
Elverket Falun;60.609644392462;15.603305034656;580463;7447653;Elverket Falun;60.609689016533;15.603359658884
Emaus;60.539427089268;14.399031993626;521092;7425324;Dala-Järna Emaus;60.539427683951;14.399123417918
Emmeråsen vsk;61.11521162356;14.661255430212;534030;7448986;Emmeråsen vsk;61.115193846556;14.661330465384
Enbacka skola;60.414270429196;15.604468888525;582137;7425072;Enbacka skola;60.414305919966;15.604396233702
Enbärsstigen;61.014850025081;14.591273025925;562141;7448646;Enbärsstigen;61.014868189389;14.591346523343
Engelbrektsgatan Falun;60.604176949185;15.627198610171;580630;7447555;Västra Skolan Falun;60.604245860998;15.625299835413
Engvalls Almo;60.762160401496;14.839310099794;529028;7448384;Engvalls Almo;60.762159483565;14.839236972635
Enholn;60.555064117335;14.360397470238;521080;7448154;Enholn;60.555081100381;14.360342369531
Edet;60.602545425783;13.81047032765;523144;7448807;Edet;60.602580903175;13.810468580151
Edhult;60.624265391064;15.815777985233;580259;7447828;Edhult;60.624291993272;15.815705022532
Edkallvejan Nusnäs;60.974103719211;14.640255889082;562128;7448658;Edkallvejan Nusnäs;60.97392479219;14.640373474946
Edsbyn busstn;61.369775820762;15.817424245564;421021;7400590;Edsbyn busstation;61.372745526109;15.819295381285
Edsbyverken;61.373334873448;15.839231484902;421022;7418540;Edsbyn Svenska Fönster;61.374269075888;15.832948529469
Edshult;60.723691535897;15.002284387417;529157;7425344;Leksand Edshult;60.723655814375;15.002377106926
Egnahemsvägen Vikmanshyttan;60.298561471585;15.828215756457;583250;7446495;Egnahemsvägen Vikmanshyttan;60.298588116317;15.828270166624
Ekenstorg Rönnäs;60.70421901038;15.122588813608;529170;7448274;Ekenstorg Rönnäs;60.704218829686;15.122625634259
Ekorrbacksvägen;59.981595789721;15.798667404886;669005;7444782;Ekorrbacksvägen;59.981667376466;15.79868548366
Ekvägen (Falun);60.590054252483;15.697272215058;580525;7447596;Ekvägen;60.590053926593;15.697272334537
Eldano;60.101709242291;15.584236651876;561019;7446940;Eldano;60.101753812863;15.584200602742
Elim Järnsta;60.246153403547;14.950404119185;585033;7447179;Elim Järnsta;60.246197751178;14.950367138848
Elverket Falun;60.609644392462;15.603305034656;580463;7447653;Elverket Falun;60.609689016533;15.603359658884
Emaus;60.539427089268;14.399031993626;521092;7425324;Dala-Järna Emaus;60.539427683951;14.399123417918
Emmeråsen vsk;61.11521162356;14.661255430212;534030;7448986;Emmeråsen vsk;61.115193846556;14.661330465384
Enbacka skola;60.414270429196;15.604468888525;582137;7425072;Enbacka skola;60.414305919966;15.604396233702
Enbärsstigen;61.014850025081;14.591273025925;562141;7448646;Enbärsstigen;61.014868189389;14.591346523343
Engelbrektsgatan Falun;60.604176949185;15.627198610171;580630;7447555;Västra Skolan Falun;60.604245860998;15.625299835413
Engvalls Almo;60.762160401496;14.839310099794;529028;7448384;Engvalls Almo;60.762159483565;14.839236972635
Enholn;60.555064117335;14.360397470238;521080;7448154;Enholn;60.555081100381;14.360342369531
Ensro;60.956030327775;15.224906289439;531234;7448413;Ensro;60.955993707035;15.224833262172
Ensro norra;60.964480535782;15.219878232101;531059;7448530;Ensro norra;60.964498074974;15.219878039453
Enviken busstn;60.808165719334;15.758570146701;580056;7401045;Enviken busstation;60.808174353381;15.758625320892
Enviksbyn;60.798300760793;15.786555169906;580060;7447987;Enviksbyn;60.798309378021;15.786555236124
Enåbadet;60.888046721053;15.130557069884;531244;7435834;Enåbadet;60.888063899464;15.130483195114
Enådal;60.889476719193;15.12581173174;531186;7425378;Rättvik Enådal;60.889476505706;15.125848732094
Ericsson Cables;60.58017471727;15.653270744368;580490;7447628;Ericsson Cables;60.580138575738;15.65334400763
Erikhans ölbryggeri;60.410735067016;15.687093608268;582103;7446739;Erikhans ölbryggeri;60.410725861127;15.687166374159
Erikpers;60.726394540859;15.836019735657;580112;7447941;Erikpers;60.72642110905;15.836074808475
Eriksberg (Falun);60.542111210333;15.76025592924;580373;7447732;Eriksberg;60.542075007886;15.760292536241
Eriksberg (Linghed);60.785163928954;15.903851109806;580078;7447971;Eriksberg (Linghed);60.785172539581;15.903869549507
Eriksgatan Avesta;60.143595962242;16.154347351202;584212;7446269;Eriksgatan;60.143577870966;16.154311270797
Eriksgatan Ludvika;60.151114855349;15.187034996455;585300;7425240;Ludvika Eriksgatan;60.150936100367;15.187254663247
Ersholen;60.492671748255;14.952229813866;526008;7448106;Ersholen;60.492680502677;14.952248031406
Eråkittvägen Bonäs;61.082283569712;14.489023964359;562052;7448706;Eråkittvägen Bonäs;61.082301411324;14.489060511728
Evertsberg;61.13433739925;13.955260988405;539151;7401113;Evertsberg;61.134300513452;13.955226321388
Evertsberg norra;61.141704400758;13.954402548567;539153;7449013;Evertsberg norra;61.141740030341;13.954419333634
Fabriksgatan Krylbo;60.12510667366;16.216916474506;584149;7446321;Krylbo Fabriksgatan;60.125268053095;16.216900597289
Facktorpsvägen Saxdalen;60.141160765214;14.995754235838;585087;7447140;Facktorpsvägen Saxdalen;60.141196392832;14.995753654247
Fagerbacken;60.414946772086;15.409980765737;581093;7447467;Fagerbacken;60.414946573991;15.410017256354
Fagersta Central;59.990257143682;15.816007888202;669008;7400266;Fagersta Centralstation;59.990759579464;15.815721559151
Fagersta Järntorget;60.004052199883;15.791421254242;669012;7410310;Fagersta busstation Järntorget;60.004016063899;15.791331836957
Fagersta norra TÅG;0.0058704365823196;-2.0452751445467;;;not found;;
Fagersta TÅG;0.0058704365823196;-2.0452751445467;;;not found;;
Fagerövägen;60.572202399477;15.650974101004;580488;7447630;Fagerövägen;60.572238016514;15.6510105324
Falla Malung;60.703118287887;13.622089571317;523170;7448784;Falla;60.703154924604;13.622160818433
Fallet (Ludvika);60.191296674863;14.730322836553;585098;7447131;Fallet;60.191277854888;14.730251679587
Fallet (Malung);60.808026951818;13.848590612439;523110;7448840;Fallet;60.808008572333;13.848592132008
Falu Lasarett huvudentren;60.608597973571;15.645595893302;580555;7413007;Falun lasarett huvudentrén;60.608669374866;15.645540889554
Falu TÅG;0.0058704365823196;-2.0452751445467;;;not found;;
Falugatan;60.606558463374;15.629595250612;580347;7413013;Falun Falugatan centrum;60.606945105093;15.63039655095
Falun C (Östra Hamngatan);60.605662334497;15.630622473236;580562;7425475;Falun centrum Ö Hamngatan;60.605688879802;15.630585943851
Falun jvstn;60.603137242645;15.642264228767;580348;7400030;Falun Centralstation;60.603288698452;15.641624679547
Fernviken;60.524600023241;15.73680793242;580253;7447834;Fernviken;60.524563819749;15.736826342077
Fernvikens gård;60.527546893537;15.743048259837;580142;7411276;Fernviken gård;60.527528612845;15.74301199254
Fetbergsta;60.664705643752;15.756496393644;580124;7447929;Fetbergsta;60.664669395054;15.756459968886
Finn Jans gata;60.506189959682;15.448943693842;581337;7447257;Finn Jans gata;60.506153740099;15.44894426312
Fabriksgatan Krylbo;60.12510667366;16.216916474506;584149;7446321;Krylbo Fabriksgatan;60.125268053095;16.216900597289
Facktorpsvägen Saxdalen;60.141160765214;14.995754235838;585087;7447140;Facktorpsvägen Saxdalen;60.141196392832;14.995753654247
Fagerbacken;60.414946772086;15.409980765737;581093;7447467;Fagerbacken;60.414946573991;15.410017256354
Fagersta Central;59.990257143682;15.816007888202;669008;7400266;Fagersta Centralstation;59.990759579464;15.815721559151
Fagersta Järntorget;60.004052199883;15.791421254242;669012;7410310;Fagersta busstation Järntorget;60.004016063899;15.791331836957
Fagersta norra TÅG;0.0058704365823196;-2.0452751445467;;;not found;;
Fagersta TÅG;0.0058704365823196;-2.0452751445467;;;not found;;
Fagerövägen;60.572202399477;15.650974101004;580488;7447630;Fagerövägen;60.572238016514;15.6510105324
Falla Malung;60.703118287887;13.622089571317;523170;7448784;Falla;60.703154924604;13.622160818433
Fallet (Ludvika);60.191296674863;14.730322836553;585098;7447131;Fallet;60.191277854888;14.730251679587
Fallet (Malung);60.808026951818;13.848590612439;523110;7448840;Fallet;60.808008572333;13.848592132008
Falu Lasarett huvudentren;60.608597973571;15.645595893302;580555;7413007;Falun lasarett huvudentrén;60.608669374866;15.645540889554
Falu TÅG;0.0058704365823196;-2.0452751445467;;;not found;;
Falugatan;60.606558463374;15.629595250612;580347;7413013;Falun Falugatan centrum;60.606945105093;15.63039655095
Falun C (Östra Hamngatan);60.605662334497;15.630622473236;580562;7425475;Falun centrum Ö Hamngatan;60.605688879802;15.630585943851
Falun jvstn;60.603137242645;15.642264228767;580348;7400030;Falun Centralstation;60.603288698452;15.641624679547
Fernviken;60.524600023241;15.73680793242;580253;7447834;Fernviken;60.524563819749;15.736826342077
Fernvikens gård;60.527546893537;15.743048259837;580142;7411276;Fernviken gård;60.527528612845;15.74301199254
Fetbergsta;60.664705643752;15.756496393644;580124;7447929;Fetbergsta;60.664669395054;15.756459968886
Finn Jans gata;60.506189959682;15.448943693842;581337;7447257;Finn Jans gata;60.506153740099;15.44894426312
Finnbo gård;60.200990716371;15.427510926617;561094;7446883;Finnbo gård;60.20102650328;15.427564822651
Finngårdarna (Borlänge);60.411229577936;15.374838996356;581003;7447538;Finngårdarna;60.411247279691;15.374857105389
Finngårdarna (Vansbro);60.473993706984;14.089025768467;521052;7421838;Rågsveden Finngårdarna;60.474037730491;14.088987481214
Finngården (Smedjebacken);60.207421188539;15.422675757032;561093;7446884;Finngården;60.207384862131;15.422622294635
Finnshögst;61.306599213056;15.509388581031;531243;7430711;Finnshögst;61.306643834912;15.509481488129
Finnsnäs;61.030694416788;14.518972447491;562018;7448731;Finnsnäs;61.030711732017;14.518953474398
Finnsnäs rv.70;61.030294228955;14.524076638179;562001;7448747;Finnsnäs riksväg 70;61.030222703914;14.524153761838
Finnsviken norra;60.235874890726;14.988650787134;585048;7425252;Finnsviken norra;60.235848124355;14.988723940738
Finnsviken södra;60.234591108982;14.988610570237;585047;7412983;Finnsviken södra;60.234590598912;14.988574767637
Finnäset;60.136504799221;15.146621085718;585209;7447037;Finnäset;60.136468903442;15.146676062038
Fiskarbo;60.148745546885;15.273833000955;561154;7446835;Fiskarbo;60.148709600119;15.273887836765
Fiskarheden busstn;61.070244781922;13.329923525937;523045;7401114;Fiskarheden busstation;61.070243581289;13.329886993636
Fiskarheden södra;61.064024641291;13.332484503828;523063;7448883;Fiskarheden södra;61.064004833249;13.332412375456
Fiskgatan;60.732578907747;14.993685992107;529159;7418254;Leksand Fiskgatan;60.732578752152;14.993722862096
Fix;60.621942093145;15.055140278322;526051;7448073;Fix;60.621914815662;15.055141129512
Fjäkelmyra;60.464203507661;15.519020938283;581059;7447491;Fjäkelmyra;60.464230121471;15.519020868643
Fjällfoten;61.871204193234;12.737938615943;539011;7449102;Fjällfoten;61.871193656033;12.737901912665
Fjärdgattu;60.771340789809;14.875956222927;529033;7448379;Fjärdgattu;60.771396020783;14.876211760326
Fjärsman Laknäs;60.834158269441;14.993684040704;529088;7448341;Fjärsman Laknäs;60.834176043206;14.993720554002
Flacken;60.332700476068;16.048101420596;583194;7446540;Flacken;60.332745147049;16.048065645195
Flatenberg;60.130990614831;15.424303342884;561105;7446875;Flatenberg;60.131008101687;15.424231396027
Flatenbergsvägen;60.130543653157;15.418748939045;561111;7446870;Flatenbergsvägen;60.130543660209;15.418839126333
Flickerbäcken;61.8076863999;12.424517180011;539033;7449088;Flickerbäcken;61.807705436052;12.424591383024
Flinkgården;60.907459538995;14.989755147304;531201;7448433;Flinkgården;60.907477524225;14.989828581192
Flinösjövägen;60.382808243768;16.067437763196;583067;7446648;Flinösjövägen;60.382789944681;16.067473969443
Flisvägen Orsa;61.135541492076;14.636239367782;534043;7448976;Flisvägen Orsa;61.13553237557;14.636277019182
Floda By;60.430964200216;15.314710505711;581115;7425267;Floda by;60.430963754105;15.314674399695
Flottbron;60.586418309096;15.069667700178;526056;7425317;Gagnef Flottbron;60.586453756325;15.06964886766
Flottbrovägen Gagnef;60.591380936596;15.071178805317;526083;7448049;Flottbrovägen Gagnef;60.591398535338;15.071178624574
Floåsen;61.999692124224;12.453661195122;539024;7449096;Floåsen;61.999729026292;12.45373381958
Flygplatsvägen (Borlänge);60.431242783721;15.512938324578;581079;7425273;Romme Flygplatsvägen;60.431187468835;15.512412413035
Flygplatsvägen (Malung);60.66333316495;13.716370435763;523129;7448822;Flygplatsvägen;60.663359083953;13.716332616711
Flygruvevägen;60.126058046414;15.049467069469;585321;7453886;Flygruvevägen;60.126076243505;15.04955689106
Fläddran;60.705925279971;15.753575903206;580134;7447920;Fläddran;60.705951889471;15.753649201555
Fläderstigen;60.134166122818;15.205959784152;585147;7447090;Fläderstigen;60.134147746726;15.20592439078
Flötningen;61.859100105814;12.238135083006;539031;7449089;Flötningen;61.859124722374;12.238075543244
Flötningen affären;61.861607172307;12.217131526288;539017;7425123;Flötningen affären;61.861631281631;12.217053007106
Folkarbyn;60.487262799577;15.706202627035;580231;7447853;Folkarbyn;60.487298363913;15.706166271359
Folkets Hus Gräsberg;60.217696238995;15.226803460699;585219;7447029;Folkets Hus Gräsberg;60.217713753833;15.226767318227
Folkets Hus Karlsbyheden;60.640127645975;15.844511335626;580132;7447921;Folkets Hus Karlsbyheden;60.640172169971;15.844584577134
Folkets Hus Långshyttan;60.453914217853;16.035283111576;583059;7446656;Folkets Hus Långshyttan;60.453931783176;16.035337832769
Folkets Hus Säter;60.345468502765;15.760008018413;582023;7446798;Folkets Hus Säter;60.345432326312;15.760026323753
Folkets Hus Sörvik;60.188941781196;15.145010623539;585200;7447045;Folkets Hus Sörvik;60.188968790293;15.145082442596
Folkets Hus, Saxdalen;60.144700464559;14.988970906346;585088;7447139;Folkets Hus Saxdalen;60.144745287836;14.989006091144
Folkets Park Bu;60.893676315273;13.392060552805;523067;7448879;Folkets Park Bu;60.893684801085;13.392060378832
Folkets Park Hedemora;60.292774073247;15.975626745247;583146;7446582;Folkets Park Hedemora;60.292737906487;15.975626675509
Folkets Park Tuna Hästberg;60.333505345822;15.196364547642;581039;7447508;Folkets Park Tuna Hästberg;60.333540613454;15.196291709762
Folkhögskolan Malung;60.670412897776;13.736936548556;523198;7448761;Malung Folkhögskolan;60.670430135719;13.736917588435
Folkärna centrum;60.15686442586;16.312279547775;584102;7425091;Folkärna centrum;60.156711961323;16.312187254955
Folkärna Elektriska;60.160217271015;16.310980440125;584105;7446359;Folkärna Elektriska;60.160217038083;16.310980519685
Formvägen Grycksbo;60.691638810185;15.480880248085;580189;7447877;Formvägen Grycksbo;60.691566795935;15.480936025798
Fornby (Leksand);60.763287081114;14.92744954308;529051;7425357;Fornby;60.763305843373;14.927632708037
Fornbyvägen (Borlänge);60.460237566301;15.462552353244;581236;7447350;Fornbyvägen;60.460237207343;15.462534357943
Fors (Leksand);60.600316765845;15.001958824754;529240;7448219;Fors;60.60033446982;15.001976867355
Fors centrum (Avesta);60.207544402748;16.308857774159;584114;7412918;Fors centrum;60.207526348631;16.308821506345
Fors TÅG;0.0058704365823196;-2.0452751445467;;;not found;;
Forsbacka (Säter);60.399472568682;15.850178807199;582048;7446778;Forsbacka;60.399463329266;15.850106356281
Forsbackan (Gagnef);60.53230272167;15.10053352309;526066;7448061;Forsbackan;60.532320524833;15.100569789496
Forsbo;60.385322338395;15.837902319487;582080;7446757;Forsbo;60.385286143142;15.83793867514
Forsbo Östra;60.386361770114;15.844322371648;582167;7440967;Forsbo östra;60.386361494243;15.844286230533
Forsgärdet;60.498527668585;14.783064330242;526021;7423484;Dala-Floda Forsgärdet;60.498491291971;14.783047562179
Forshaga;60.39442669309;15.812373718569;582092;7446747;Forshaga;60.394444354566;15.812373850744
Forshaga södra;60.388790203349;15.814838923317;582093;7446746;Forshaga södra;60.388789911023;15.814911589481
Forsnäs;60.398641605176;15.836881270834;582049;7446777;Forsnäs;60.398659270935;15.836863272118
Forssa centrum;60.495494875299;15.430485324344;581244;7447344;Forssa centrum;60.495512556663;15.430503488857
Forssaklackskolan;60.502688293124;15.425706968922;581247;7447341;Forssaklackskolan;60.502678945711;15.425689055297
Forum Kvarnsveden;60.516439633942;15.413857595975;581314;7425255;Borlänge Forum Kvarnsveden;60.516466822914;15.414057705284
Fredriksberg bussplan;60.139534162881;14.378332243076;585079;7400643;Fredriksberg bussplan;60.139568990068;14.378259137728
Fredriksberg Centrum;60.140428516361;14.37303741515;585315;7433632;Fredriksberg centrum;60.140409893959;14.373002629066
Fredriksberg Herrgården;60.13682640669;14.392020245318;585082;7447143;Fredriksberg Herrgården;60.136844449738;14.392055868158
Fredshammar vsk;61.18445310625;14.771575204241;534031;7448985;Fredshammar vsk;61.18447129431;14.771667719765
Frejavägen;60.619531364789;15.632884823774;580588;7447542;Frejavägen;60.61951308205;15.632885045875
Fricken;60.833577987007;15.051156336031;529007;7448402;Fricken;60.833613178831;15.051100528495
Fridhem, Avesta;60.168516672928;16.149080926355;584125;7446343;Fridhem;60.168543126044;16.149171373275
Fritidsvägen;60.338835998227;15.760397646688;582019;7446803;Fritidsvägen;60.33888059296;15.760397728845
Frostbo;60.429485281919;15.380480053579;581104;7447460;Frostbo;60.429484798251;15.380425781313
Frostkitt;61.054099474554;14.488897956522;562059;7448700;Frostkitt;61.054117321277;14.488934477719
Frosts;61.02627913663;14.504999303754;562078;7411310;Östnor Frosts;61.026268642729;14.50488897088
Frosts Knivfabrik Östnor;61.026598872818;14.501859768846;562199;7448609;Frosts Knivfabrik Östnor;61.02659895661;14.501915498688
Fryksås vsk;61.192701194267;14.536320633356;534046;7401057;Fryksås vägskäl;61.192700888145;14.536339434311
Främby;60.587234189776;15.642545556541;580482;7447636;Främby;60.587126164951;15.642546230691
Främbyskolan;60.588683945046;15.654215795557;580552;7447572;Främbyskolan;60.58866566823;15.65421600684
Främbyviken;60.584869118993;15.653759379015;580491;7447627;Främbyviken;60.584895633483;15.653686403765
Frövi TÅG;0.0058704365823196;-2.0452751445467;;;not found;;
Fu;61.170828389359;15.138266362186;562107;7400882;Furudal ishallen;61.170800655693;15.138192722167
Fulunäs;61.307966366492;13.071595364219;523051;7448893;Fulunäs;61.307974366166;13.071576414887
Furbo vsk;60.16380428735;15.436673939821;561108;7446873;Furbo vsk;60.163803925514;15.436638142663
Furuberg;60.146862389898;15.281009949175;561153;7446836;Furuberg;60.146852866254;15.280938342874
Furudal ishallen;61.170828389359;15.138266362186;531040;7400882;Furudal ishallen;61.170800655693;15.138192722167
Furudals bruk;61.1953938563;15.170532158259;531016;7448562;Furudals bruk;61.195366748481;15.170588586163
Furudals skola;61.166607777255;15.148723078267;531009;7413071;Furudal skola;61.166634071619;15.148685472883
Furustrand;60.508829883805;15.719423068558;580241;7447844;Furustrand;60.508847498617;15.719386745915
Furuvägen (e) Grängesberg;60.074813927083;15.011070153325;585133;7447103;Furuvägen (e) Grängesberg;60.074777554517;15.011035404206
Fyres;60.929841575343;15.216439510344;531230;7448416;Fyres;60.929841253337;15.216458095013
Fyrklövern (Rättvik);60.881618478667;15.133676007214;531183;7448443;Fyrklövern;60.881618448767;15.133749822363
Fyrklöverskolan (skolbusshpl.)Hedemora;60.267170975082;15.980011196062;583267;7446483;Fyrklöverskolan (skolbusshpl.);60.267690091171;15.980917429581
Fågeljosef;60.69357775617;13.703072570026;523121;7448830;Fågeljosef;60.69358543961;13.703017579732
Fågelmyra;60.504791780963;15.51636875514;581132;7447437;Fågelmyra;60.504791304925;15.516296122836
Fågelsången;60.348655918496;15.741474962919;582127;7446721;Fågelsången;60.348655670427;15.741547557681
Fäbacken;60.208644835583;15.117092141569;585202;7447043;Fäbacken;60.208662505883;15.11709203715
Fäbodbacken;60.171687434174;16.451798901419;584264;7410181;Fäbodbacken;60.171722840141;16.451853701376
Fäggeby;60.395936417166;15.888137347211;582082;7425203;Fäggeby;60.395765571056;15.888191449545
Fällrisvägen;61.018745642198;14.595303902265;562028;7448722;Fällrisvägen;61.018762808365;14.595266479075
Fältvägen;60.133860752457;15.171272310056;585211;7447035;Fältvägen;60.133896042857;15.171199919121
Fändriksgatan Färnäs;60.998848077324;14.63502386166;562134;7448652;Fändriksgatan Färnäs;60.99882969154;14.635024756601
Färjan;60.172414401481;16.478890410568;584262;7410183;Färjan;60.172396222628;16.478890094943
Färjegårdarna;60.470920309112;15.481419528111;581359;7447236;Färjegårdarna;60.470964648556;15.481328354477
Färjegårdsvägen;60.467027446965;15.47869536794;581358;7447237;Färjegårdsvägen;60.46700905062;15.478641190839
Färjenäs norra;60.518905301059;15.366962520647;581179;7447398;Färjenäs norra;60.518833477646;15.367054710884
Färjenäs södra;60.515910276063;15.373265768394;581180;7447397;Färjenäs södra;60.515713157908;15.373468839643
Färmsnäs;60.519833184379;14.985418966096;526031;7448089;Färmsnäs;60.519814784779;14.985401468035
Färnäs Gamla Posten;61.000475138902;14.630158113479;562135;7413089;Färnäs gamla posten;61.000492642119;14.630157684587
Färnäs kvarn;61.00525966462;14.608813780994;562144;7425426;Färnäs kvarn;61.005240456395;14.608722291226
Församlingshemmet Skogsbo;60.162432987882;16.194059549699;584184;7425134;Avesta Församlingshemmet Skogs;60.162405614377;16.194131366345
Fösarbo;60.141199389615;15.29960235154;561151;7446838;Fösarbo;60.141181040222;15.299566881992
G.a ålderdomshemmet Enviksbyn;60.801664603053;15.777626630413;580059;7447988;G.a ålderdomshemmet Enviksbyn;60.801628331027;15.777553266371
G:a affären Andersbo;60.772917394794;15.402891024743;580592;7430341;Gamla affären affären Andersbo;60.772934864949;15.402854238717
Gagnbro;60.53412180596;15.299612974211;581169;7447407;Gagnbro;60.534031798828;15.299632787058
Gagnef Ica;60.595573775164;15.081303970181;526086;7420847;Gagnef ICA;60.595311197719;15.08094505976
Gagnef jvstn;60.59821087098;15.081007569546;526085;7400322;Gagnef station;60.598795914165;15.081377969501
Gagnef kyrkan;60.591531811704;15.059532786821;526081;7448050;Gagnef kyrkan;60.591513309933;15.059496937933
Gagnef TÅG;0.0058704365823196;-2.0452751445467;;;not found;;
Gagnefs kyrkby;60.590975842415;15.066078500607;526082;7413040;Gagnef Kyrkby;60.59101138915;15.066077907296
Gahns väg;60.615503960956;15.64179971602;580546;7447578;Gahns väg;60.615485746554;15.641854715964
Galgberget;60.586204751646;15.630509184584;580340;7447752;Galgberget;60.586213398727;15.630509267098
Gamla affären Bengtsheden;60.70333285375;15.875916655229;580103;7447948;Gamla affären Bengtsheden;60.703341461697;15.875971680221
Gamla affären Naglarby;60.418326225904;15.576201200315;582052;7425213;Naglarby gamla affären;60.418299062751;15.576237856572
Gamla affären Söder Bergsäng;60.807559888279;15.085499097891;529062;7448362;Gamla affären Söder Berg;60.807595494925;15.085516849195
Gamla affären Tolvsbo;60.048605433788;15.533855832831;561041;7446922;Gamla affären Tolvsbo;60.048614355537;15.533945714599
Gamla affären Vad;60.025260030166;15.666281123049;561034;7446926;Gamla affären Vad;60.025304715253;15.666317003233
Gamla Ambergsvägen Vika;60.93684092322;14.465022202351;562075;7448688;Gamla Ambergsvägen Vika;60.93684030197;14.465004040172
Gamla apoteket Sunnansjö;60.215706066832;14.959982937194;585013;7447196;Gamla apoteket Sunnansjö;60.21574179414;14.960000348009
Gamla bastun Grimsåker;60.657776016874;13.74008884585;523200;7448759;Gamla bastun Grimsåker;60.657802791156;13.740105868734
Gamla Berget;60.601059063573;15.588464299282;580461;7447655;Gamla Berget;60.601049727328;15.588446242816
Gamla brandstationen Enviken;60.804296540964;15.755416481926;580055;7408819;Enviken Gamla brandstationen;60.80431416524;15.755508372977
G.a ålderdomshemmet Enviksbyn;60.801664603053;15.777626630413;580059;7447988;G.a ålderdomshemmet Enviksbyn;60.801628331027;15.777553266371
G:a affären Andersbo;60.772917394794;15.402891024743;580592;7430341;Gamla affären affären Andersbo;60.772934864949;15.402854238717
Gagnbro;60.53412180596;15.299612974211;581169;7447407;Gagnbro;60.534031798828;15.299632787058
Gagnef Ica;60.595573775164;15.081303970181;526086;7420847;Gagnef ICA;60.595311197719;15.08094505976
Gagnef jvstn;60.59821087098;15.081007569546;526085;7400322;Gagnef station;60.598795914165;15.081377969501
Gagnef kyrkan;60.591531811704;15.059532786821;526081;7448050;Gagnef kyrkan;60.591513309933;15.059496937933
Gagnef TÅG;0.0058704365823196;-2.0452751445467;;;not found;;
Gagnefs kyrkby;60.590975842415;15.066078500607;526082;7413040;Gagnef Kyrkby;60.59101138915;15.066077907296
Gahns väg;60.615503960956;15.64179971602;580546;7447578;Gahns väg;60.615485746554;15.641854715964
Galgberget;60.586204751646;15.630509184584;580340;7447752;Galgberget;60.586213398727;15.630509267098
Gamla affären Bengtsheden;60.70333285375;15.875916655229;580103;7447948;Gamla affären Bengtsheden;60.703341461697;15.875971680221
Gamla affären Naglarby;60.418326225904;15.576201200315;582052;7425213;Naglarby gamla affären;60.418299062751;15.576237856572
Gamla affären Söder Bergsäng;60.807559888279;15.085499097891;529062;7448362;Gamla affären Söder Berg;60.807595494925;15.085516849195
Gamla affären Tolvsbo;60.048605433788;15.533855832831;561041;7446922;Gamla affären Tolvsbo;60.048614355537;15.533945714599
Gamla affären Vad;60.025260030166;15.666281123049;561034;7446926;Gamla affären Vad;60.025304715253;15.666317003233
Gamla Ambergsvägen Vika;60.93684092322;14.465022202351;562075;7448688;Gamla Ambergsvägen Vika;60.93684030197;14.465004040172
Gamla apoteket Sunnansjö;60.215706066832;14.959982937194;585013;7447196;Gamla apoteket Sunnansjö;60.21574179414;14.960000348009
Gamla bastun Grimsåker;60.657776016874;13.74008884585;523200;7448759;Gamla bastun Grimsåker;60.657802791156;13.740105868734
Gamla Berget;60.601059063573;15.588464299282;580461;7447655;Gamla Berget;60.601049727328;15.588446242816
Gamla brandstationen Enviken;60.804296540964;15.755416481926;580055;7408819;Enviken Gamla brandstationen;60.80431416524;15.755508372977
Gamla brandstationen St Skedvi;60.408571409819;15.800237189881;582097;7446743;Gamla brandstationen St Skedvi;60.40853521725;15.800219180174
Gamla filialen Gulleråsen;61.060638649331;15.181048416872;531065;7448525;Gamla filialen Gulleråsen;61.06062036131;15.181067412529
Gamla flottbron;60.474356065512;15.488167114988;581195;7447383;Gamla flottbron;60.474391737909;15.48820329904
Gamla garaget;60.405347526905;15.591914395524;582141;7425194;Mora gamla garaget;60.405311649804;15.592114372205
Gamla Herrhagen;60.622950538056;15.606947617963;580445;7447670;Gamla Herrhagen;60.622977100177;15.606929316012
Gamla jvstn Sörbo;60.038003013779;15.627150262071;561032;7446928;Gamla jvstn Sörbo;60.038002779769;15.62715046765
Gamla Konsum Idbäck;60.695196174496;13.670314759859;523175;7448780;Gamla Konsum Idbäck;60.695222654537;13.67031345678
Gamla Koppartorget;60.593428589693;15.686548754734;580280;7447809;Gamla Koppartorget;60.593275805694;15.686677181374
Gamla Kyrkan Enviksbyn;60.795268594074;15.798566802851;580062;7447985;Gamla Kyrkan Enviksbyn;60.795259258956;15.798493421068
Gamla landsvägen;60.653397284268;15.794871077652;580127;7447926;Gamla landsvägen;60.653370027165;15.79487118067
Gamla Nittsjötvätten;60.914804624628;15.055134131821;531209;7448429;Gamla Nittsjötvätten;60.914768014585;15.055079859802
Gamla pensionärshemmet Snöån;60.078253246779;15.21725170231;561091;7425228;Snöån gamla pensionärshemmet;60.07827959912;15.21717964202
Gamla posten Linghed;60.789363935211;15.89073634307;580076;7447973;Gamla posten Linghed;60.789399527749;15.890663052962
Gamla skolan Dalhed;61.127425192978;15.144954016805;531043;7448542;Gamla skolan Dalhed;61.127398286757;15.145047472367
Gamla skolan Grådö;60.23424250682;16.04268297004;583213;7446524;Gamla skolan Grådö;60.234206416183;16.042646727102
Gamla skolan Hagge;60.126846390619;15.287751472692;561149;7446839;Gamla skolan Hagge;60.126864010944;15.2877334534
Gamla skolan Hulån;60.542588380932;14.306794412663;521057;7448172;Gamla skolan Hulån;60.54255192033;14.306778236309
Gamla skolan Norrboda;61.121424828718;15.245024708558;531022;7448559;Gamla skolan Norrboda;61.121388346494;15.244988345498
Gamla skolan Svinö;60.405936845487;16.058278959846;583074;7425181;Svinö gamla skola;60.405963591265;16.058224823885
Gamla skolan Sörboda;61.110008943008;15.251421522314;531014;7448564;Gamla skolan Sörboda;61.110017789638;15.251495649527
Gamla skolan Västansjö;60.257174649845;14.954433376679;585035;7447178;Gamla skolan Västansjö;60.257174241114;14.954415612253
Gamla skolan Västbjörka;60.925763465434;14.98014070053;531198;7448435;Gamla skolan Västbjörka;60.925727159365;14.980141816403
Gamla småskolan Bengtsheden;60.691250814737;15.861173927839;580107;7447945;Gamla småskolan Bengtsheden;60.69123247613;15.861302103402
Gamla snickeriet;60.546877173162;14.411848975051;521021;7448198;Gamla snickeriet;60.546922429119;14.411920269338
Gamla station, Jularbo;60.158739979749;16.260338146214;584167;7446309;Gamla station Jularbo;60.158606906717;16.259814181848
Gamla stationen Linghed;60.789162548556;15.896794638122;580077;7447972;Gamla stationen Linghed;60.789126348384;15.896721151964
Gamla textilfabriken Sågmyra;60.713080262606;15.299051376032;580165;7447897;Gamla textilfabriken Sågmyra;60.713081839838;15.299564389911
Gamla tryckeriet;60.691991535797;13.704970660842;523122;7448829;Gamla tryckeriet;60.691999794367;13.704952258316
Gamla vårdhemmet Tjärnan;60.329599754482;15.854429306625;583163;7446567;Gamla vårdhemmet Tjärnan;60.329635405033;15.854357084663
Gamlavägen;60.94917011849;14.968554457857;531162;7448459;Gamlavägen;60.949170275029;14.96864689285
Gammelgården Boda;61.020852900892;15.210404989341;531074;7448519;Gammelgården Boda;61.020816260862;15.210331820247
Gammelgården Borlänge;60.495378637308;15.437072871244;581242;7447345;Gammelgården Borlänge;60.495440587668;15.436872207474
Gammelgården Hedemora;60.285602599737;15.975824669191;583279;7425162;Hedemora Gammelgården;60.28555752814;15.975770322842
Gammelgården Sunnansjö;60.219981511778;14.966097226353;585028;7412985;Sunnansjö Gammelgården;60.219998717825;14.96602490857
Gammelgården Svärdsjö;60.756467068906;15.921628475689;580087;7447963;Gammelgården Svärdsjö;60.756439847286;15.921573411451
Gammelgården Sälen;61.158176535937;13.133864102412;523028;7448912;Gammelgården Sälen;61.158183848462;13.133808181948
Gammelvägen;60.60285153897;15.65896827725;580288;7447801;Gammelvägen;60.602851129058;15.658895384766
Garberg;61.115150919648;14.249134166219;539083;7413152;Garberg;61.115114341649;14.249117670933
Garberg rv 70;61.111558888763;14.267805527688;539089;7449057;Garberg rv 70;61.111558831011;14.267842886281
Garpenberg centrum;60.3168425464;16.19514664224;583097;7446623;Garpenberg centrum;60.31686894408;16.195237508951
Garpenberg Herrgården;60.284127799058;16.201139200179;583102;7425177;Garpenberg Herrgården;60.284091534529;16.201174999537
Garpenbergsskolan;60.314466904146;16.206300031969;583099;7425178;Garpenberg skolan;60.314592455177;16.206247365811
Garpenbergsvägen;60.316130712042;16.043962051837;583204;7446531;Garpenbergsvägen;60.316058643518;16.043961631759
Garsås;60.921935347808;14.826802002396;562248;7401459;Garsås;60.921917251372;14.826839635041
Garvarns väg Landforsen;60.176849344031;15.204856744163;585205;7447041;Garvarns väg Landforsen;60.176866696113;15.204784611411
Gassarvet;60.767967922986;14.911871505864;529049;7448369;Gassarvet;60.767958806683;14.911908674005
Gatu;60.832469559105;15.068115701608;529006;7448403;Gatu;60.832450815513;15.068042769712
Genvägen;61.172583231782;15.126614731376;531050;7448536;Genvägen;61.172627744473;15.126632460128
Gerbergsgärdet nedre;60.52894039595;15.432119444692;581329;7447265;Gerbergsgärdet nedre;60.528904172007;15.432120032479
Gesunda;60.886049200546;14.545008428685;562084;7401118;Gesunda;60.886093982333;14.545043753076
Gesunda gärde;60.888811615573;14.545746685579;562085;7448684;Gesunda gärde;60.888792556063;14.54567401422
Gesällgatan;60.478367538708;15.429446860717;581349;7447215;Sims myr;60.479817421081;15.434503899332
Get Johannas väg;60.155044049604;16.200850659035;584045;7446413;Get Johannas väg;60.155025220009;16.201066600817
Getbo;60.172320385032;15.452521555489;561096;7446881;Getbo;60.172284366026;15.452576203464
Getbovallen;60.057624534628;15.264996525325;561138;7446849;Getbovallen;60.057659966885;15.26494234721
Getingtjärn;60.27411782205;15.227143246455;585170;7447069;Getingtjärn;60.274081950687;15.22721640471
Gettorget (Falun);60.617439877661;15.619290515104;580437;7447677;Gettorget;60.617430697094;15.619382006956
Gettorget (Rättvik);60.866596270528;15.112770766925;531178;7425381;Rättvik Gettorget;60.866613537124;15.112715342273
Giftings;60.940630845475;15.227197883616;531233;7448414;Giftings;60.940657125139;15.227142196725
Gimmenvägen rv 70;60.552966363023;15.24281623956;581184;7447393;Gimmenvägen rv 70;60.552922768139;15.243199950899
Gimsbärke;60.548445984075;15.271962042121;581186;7447391;Gimsbärke;60.548463307145;15.271889053602
Gimsbärke norra;60.551915546898;15.25555620152;581185;7447392;Gimsbärke norra;60.551898238787;15.255793627292
Gimsbärke södra;60.544774279805;15.278509558463;581187;7447390;Gimsbärke södra;60.544809844323;15.278509171649
Gladtjärn;60.158940243559;15.512216596708;561098;7446879;Gladtjärn;60.158966751338;15.512144537348
Glaningevägen Blötberget;60.124252120993;15.053879934338;585169;7447070;Glaningevägen Blötberget;60.124216160934;15.053917020866
Glasmästeriet Fiskarheden;61.076471242201;13.326730811755;523061;7448885;Glasmästeriet Fiskarheden;61.076472078058;13.32680532446
Glistjärna;60.927365530491;15.097490893637;531112;7448495;Glistjärna;60.927383458454;15.097564413091
Glysjön;61.511368472156;13.374678645494;539077;7449066;Glysjön;61.511350935728;13.374736697718
Gläntan Långshyttan;60.447131711948;16.022972775554;583028;7446680;Gläntan Långshyttan;60.447131480787;16.022936528961
Gläntan Svärdsjö;60.730521578466;15.884039206968;580095;7447956;Gläntan Svärdsjö;60.730530178852;15.884094275032
Godsvägen;60.999749182609;14.521075418052;562186;7448621;Godsvägen;60.999855167699;14.520941984006
Golfbanan Aspeboda;60.549031356505;15.513166545743;580380;7447726;Golfbanan Aspeboda;60.549031030864;15.513166702494
Golfvägen;60.896372416454;15.121114529403;531117;7448491;Golfvägen;60.896362947809;15.121096468745
Gonäs;60.146733436406;15.093905955869;585194;7412962;Gonäs;60.146697268871;15.093907015923
Gonäs Hytta;60.1446692961;15.110852948361;585195;7447048;Gonäs Hytta;60.14463322377;15.110871985492
Gonäsheden västra;60.137330923875;15.062003643868;585191;7447051;Gonäsheden västra;60.137366959108;15.062075100032
Gonäsheden östra;60.1395080378;15.066093918317;585153;7447084;Gonäsheden östra;60.139544070567;15.066165382714
Gonäsvägen Ludvika;60.131836565048;15.175935572521;585263;7446988;Gonäsvägen Ludvika;60.131854165641;15.175917508648
Gopa;60.721839426613;15.346257284665;580170;7447892;Gopa;60.721864352915;15.345780710512
Gopa västra;60.715848516709;15.324470574804;580168;7447894;Gopa västra;60.715865972155;15.32443383391
Gopa östra;60.72312879702;15.355949865216;580171;7447891;Gopa östra;60.723064630154;15.355657752671
Gopshus;61.100635713599;14.240483187417;562026;7448724;Gopshus;61.100654034814;14.240556720072
Grafsberget;60.671069414967;15.529106755566;580199;7447870;Grafsberget;60.671033094905;15.529070614326
Granasagatu Nusnäs;60.959213188181;14.653759811286;562121;7448663;Granasagatu Nusnäs;60.959231331437;14.653833217601
Granatstigen;60.580025594061;15.64108623963;580607;7431636;Granatstigen;60.580034287671;15.64112280669
