stop_id,stop_name,stop_lat,stop_lon
7469859,Åkerivägen,59.20454919200763,17.65675516548301
7469856,Morabergsvägen,59.206011615425226,17.646714872147797
7469863,Tegelängsvägen,59.197197271778236,17.64904112443685
7469862,Bellmansvägen,59.19831888106293,17.644655606633844
7469861,Kyrkogårdsvägen,59.19956258417943,17.641151569088453
7469860,Rektorsvägen,59.199745302831126,17.63647019243077
7469867,Gökvägen,59.187795508566346,17.652261963370865
7469866,Hagabergs folkhögskola,59.190649409225706,17.646028505055668
7469865,Högåsavägen,59.19341791305575,17.642642135852693
7469864,Folkparksvägen,59.19498701213368,17.647241874741376
7469871,Fornhöjdens centrum,59.19015347261728,17.663851395904196
7469869,Vretensvägen,59.18603566034636,17.666742436644448
7469868,Centralvägen,59.18596411839464,17.65728992167321
7469874,Gillestigen,59.1996652413685,17.582692938980724
7469872,Klockarvägen,59.19613595084503,17.578134100251244
7469873,Geneta centrum,59.19632357258559,17.58477722133743
7469878,Ronna skola,59.2056468260133,17.598269927473925
7469879,Törnrosavägen,59.20544544889891,17.606347677086234
7469876,Klövjevägen,59.20265831080277,17.586402042288437
7469877,Ronna centrum,59.20431207637977,17.590864749994214
7469882,Ekbacken,59.24575505039046,17.63760384797973
8600858,Köbenhavns Lufthavn,55.629571743744826,12.648922198604295
7469883,Värdsholmsgatan,59.18740811652705,17.6320132620211
8600857,Tårnby,55.62994722411882,12.602094990965755
8600856,Örestad,55.62841012345541,12.57879089260779
7469886,Södertälje Sjömansplan,59.181584604471105,17.645751205699355
7469887,Anningåkre,57.16279020662327,18.276626839127474
7469884,Gjuteriporten,59.185458789605114,17.636545993393693
7469885,Verkstadsvägen,59.182827014819416,17.64170647101596
7469827,Ansgarsvägen,59.22626499792582,17.6354730145726
7469829,Köpmangatan,59.19707867059971,17.62815361880929
7469828,Norsborg Eriksbergsåsen,59.24313315511148,17.821059340183467
7469830,Polhemsgatan,59.20054508271708,17.631314066986178
7469833,Paradisgränd,59.199573525169626,17.627603836445427
7469832,Vackstanäs,59.141263976621026,17.50096276707039
7469835,Bruksgatan,59.20587995013124,17.63121361402618
7469834,Sveagatan,59.202262673404,17.636237283153257
7469837,Ragnhildsborgsvägen,59.212806787237724,17.629639638786834
7469836,Brunnsängs centrum,59.211083423262636,17.630878500405544
7469838,Brunnsängsvägen,59.21496308978254,17.63210128321292
7469841,Hjälmsättra,59.23366837281128,17.631296275430145
7469842,Viksätersvägen,59.23856299698469,17.627369534971553
7469843,Ladviksvägen,59.245527297106655,17.62439317411869
7469844,Viksberg,59.24844348134304,17.61357515412106
7469845,Eksättravägen,59.246147959143904,17.647300492164522
7469846,Solliden,59.25059796637841,17.657042041024972
7469847,Solvik,59.251467411405734,17.65272396518027
7469848,Svalängen,59.254463326216474,17.640876283919724
7469849,Furulund,59.256428059245124,17.62756881529636
7469850,Högantorp skola,59.25617174484473,17.622137355790713
7469851,Bockholmssättra,59.27320431298037,17.630499517022855
7469852,Annalundsvägen,59.21721773139579,17.637142962416664
7469853,Ekensbergs Ind Omr,59.20488974982038,17.652379310451757
7469854,Ekensbergsgatan,59.20300431442363,17.639042923973914
7469855,Weda,59.204377521201145,17.6448062218298
7469927,Idrottsvägen,59.19699081778245,17.637600538318118
7469926,Fornhöjden norra,59.19600597428471,17.663976651217883
7469925,Mörbyvägen,59.18345108635635,17.456583374129377
7469920,Scaniarinken,59.188995221132316,17.571727329970287
7469935,Slätås,59.20221970050471,17.424877436733947
7469934,Elsaborg,59.19810191361357,17.435394217032236
7469933,Turinge kyrka,59.19659383990215,17.439662874100282
7469932,Vindhammar,59.19552642947403,17.445999915548516
7469931,Klockarvägskrönet,59.19644372413825,17.591731950754202
7469930,Odalvägen,59.20411518845122,17.601253300052097
7469929,Nykvarn Stallbacksvägen,59.1832227601381,17.433391367384438
7469928,Fornbackaskolan,59.19328180325626,17.661081042885975
7469942,Gärtunavägen,59.18133367274875,17.66464987568318
7469943,Gärtuna,59.17783335517004,17.675813034216073
7469940,Sundsvik kvarn,59.230454413223406,17.427230990581805
7469941,Viksängsvägen,59.1876548446527,17.642542846019477
7469938,Vårtala,59.21644664601186,17.421575796099376
7469939,Sundsör,59.22822030165241,17.4263892438542
7469936,Österkumla vägskäl,59.20897847332082,17.41997991607965
7469937,Djurstaberg vägskäl,59.21333970554839,17.42088617809749
7469950,Stora Ryssjön,59.201309683541204,17.332342839512503
7469951,Ryssjöbrinksvägen,59.20278938024632,17.32789266071002
7469948,Källviksvägen,59.18734995286034,17.337564256348482
7469949,Svartbrovägen,59.19590366987903,17.337019518910065
7469946,Karlslund,59.17493699210934,17.38967309584401
7469947,Runnbäcken,59.18100916667934,17.37165553626523
7469944,Nykvarn Bystavägen,59.17246999388648,17.410004149871234
7469945,Jägarskogsvägen,59.17340053334086,17.401512652676946
7469893,Campus Telge,59.18825307470909,17.62490146864232
7469892,Granpark,59.16545692511757,17.64077556513212
7469895,Linnégatan,59.18576713796094,17.61903029449896
7469894,Fribovägen,59.18475737663768,17.621898751175642
7469888,Uthamnsvägen,59.1776374529654,17.64930013684646
7469891,Sydhamnsvägen,59.16556755874892,17.64691940913621
7469901,Abborrstigen,59.14830858430079,17.65901370535627
7469900,Mörtstigen,59.14662804473424,17.661631857303462
7469902,Hovsjöskolan,59.17516237967241,17.60291867177298
7469897,Lundbygatan,59.186512115366725,17.614537896284975
7469896,Erikshällsgatan,59.18703212147808,17.61717254312818
7469899,Torekällberget,59.19171369634777,17.612397763278217
7469898,Fridenslundsvägen,59.18261559056434,17.607403819002656
7469908,Vibergen,59.17885316977699,17.614535672415858
7469909,Hovsjö centrum,59.1764295467839,17.60737574055234
7469910,Torslund,59.249067910799674,17.66234073121776
7469911,Jovisgatan,59.19694485994265,17.624243344333618
7469904,Hertig Carls väg,59.18901276132629,17.6270767023248
7469905,Scania centralkontor,59.18208379461472,17.63136185487441
7469906,Förmansvägen,59.18108368590176,17.62327841805281
7469907,Saltskogs centrum,59.17927662025082,17.62087331291756
7469916,Brolundavägen,59.19519738798763,17.600085305765916
7469917,Mårten Bullers väg,59.19098234391605,17.594509413225428
7469918,Gymnastikvägen,59.18797458203484,17.58992520412085
7469919,Vasa handelsplats,59.18806081777122,17.57902833871135
7469912,Villagatan,59.19746205846297,17.616779485049538
7469913,Kvarnberget,59.1994999425668,17.612283756902553
7469914,Orrstigen,59.19905065586346,17.608426678810684
7469915,Floravägen,59.19600198387087,17.605535710391834
7469994,Prästtorp,59.21548090360141,17.31665502163707
7469995,Lilla Ryssjön,59.2101084375901,17.33996648200401
7469992,Eksbäcken,59.22318563355577,17.29863978552771
7469993,Såglöt,59.22521440531551,17.30335260932718
7469998,Lövstalund,59.16424060927809,17.741922248064935
7469999,Vretabergsvägen,59.165406059452025,17.764214582992395
7469996,Tysslinge,59.16570482564361,17.721282389128415
7469997,Katarinagården,59.16545831927236,17.728246029200132
7469986,Lärlingsvägen,59.179013102355086,17.595196157958508
7469987,Sätravägen,59.20838800853415,17.36609819309539
7469985,Telgebo,59.17827699022533,17.60299466098356
7469990,Ryssjöbrink station,59.2125587408225,17.327802123713703
7469991,Sjövreta,59.2198356151544,17.311208156790563
7469988,Västerkumla,59.20635494974913,17.387241028752776
7469989,Snebro,59.20860257030446,17.352644534470873
7470011,Lida gård,59.0150724622193,17.529868143338028
7470010,Nyhemsvägen,59.02110548180729,17.532625220570647
7470009,Månvägen,59.027997054373905,17.54167893418588
7470008,Ekhamra,59.02406110519189,17.573140462457808
7470015,Kvedestavägen,59.14562264731378,17.650899096792926
7470014,Silverstigen,59.18134979690071,17.616434543171522
7470013,Norrvrå gård,59.01035078511159,17.517585959196694
7470012,Norrvrå,59.00636336664684,17.512201146613176
7470003,Stensta,59.06728575738853,17.605788010376433
7470002,Säbylund,59.075767909872276,17.606650627661526
7470001,Skäve,59.08701702317328,17.583320588411212
7470000,Smedjan,59.08871406085773,17.572800280690352
7470007,Österby vägskäl,59.02029836036786,17.583029508021628
7470006,Stav,59.03349138980216,17.597820098191075
7470005,Skilleby,59.04498865070264,17.60530160746637
7470004,Ytter Eneby,59.0543773996043,17.611352787522655
7469960,Viksvägen,59.192574529307436,17.277775355456267
7469961,Dammen,59.20033603755043,17.275798794161915
7469962,Ekuddsvägen,59.20805893353104,17.279614568880756
7469963,Tomtsätravägen,59.215677246972575,17.28472339792019
7469964,Kopparhaga,59.2220451987494,17.29552497278371
7469965,Byvägen,59.19968161961456,17.597204722186287
7469966,Djupdal,59.19955969697757,17.5759484059868
7469967,Hanstavreten,59.20204909085498,17.567184532493098
7469952,Björkbro,59.199627536558346,17.32418140294753
7469953,Rännilsbo,59.19723221704033,17.320942309017077
7469954,Murmästartorp,59.19512573790138,17.31601886830268
7469955,Skogsängsvägen,59.194013178827205,17.31208475784768
7469956,Lidavägen,59.19359634328839,17.30620396152336
7469957,Aldal,59.19136554722536,17.29798678773703
7469958,Lilla Lövtorp,59.18692110001097,17.290164650690453
7469959,Ramtorpsvägen,59.18540173438695,17.280878611742036
7469977,Marstavägen,59.20396907247656,17.40904764430184
7469976,Nykvarn Vandringsvägen,59.171645360019475,17.43801803318901
7469979,Strömskog,59.174530210295636,17.634719865367003
7469978,Nykvarn Rudkällavägen,59.16709867209349,17.44115889428328
7469980,Scania tekniskt centrum,59.166649792556306,17.635138542132566
7469983,Tältvägen,59.189743004947225,17.638367578035915
7469969,Hanstavik vägskäl,59.20260215023717,17.546784102996355
7469968,Torsjödal,59.202026755921864,17.557538007885668
7469971,Sjöbacka vägskäl,59.18903278098699,17.49179642044867
7469970,Kämsta vägskäl,59.19923070291157,17.539050953346607
7469973,Turinge prästgård,59.19132406935168,17.438186373613505
7469972,Vänstra vägskäl,59.189551235346215,17.46826900826758
7469975,Nykvarn Björkesta,59.174505638138946,17.436895012004165
7469974,Nykvarn Björkhagen,59.18651248359953,17.438831779146838
7470062,Sandvikens Tegelbruk,59.267596017360844,17.506901208311376
7470063,Sandvikens brygga,59.272417521855544,17.511702295182328
7470060,Valla,59.2532310485333,17.480537341868953
7470061,Norrlöt,59.26335799224728,17.497956832199407
7470058,Eriksberg,59.20195893780757,17.427070676325165
7470059,Ekeby såg,59.2517167470675,17.52302695613179
7470056,Gamla Malmsjön,59.23089856585634,17.551799573806438
7470057,Malmsjöbadsvägen,59.23365538142053,17.547752835892663
7470054,Kulturcentrum Järna,59.068983194375896,17.61736825472425
7470055,Vidarkliniken,59.06669731162755,17.619026381283977
7470052,Lindesborg,59.24644444187875,17.656781816605672
7470050,Vårbovägen,59.21982619137791,17.636179271185462
7470051,Tranvägen,59.24289245118359,17.61049464168611
7470048,Stortäppan,59.062568620963624,17.50963593084805
7470049,Molstaberg,59.03879991793825,17.383494320144745
7470079,Nykvarn Eldarevägen,59.18245595684992,17.42072379718284
7470078,Hantverksvägen,59.17921266040686,17.595049143061846
7470076,Förrådsvägen,59.18225164818637,17.598007196735352
7470075,Igelstaverket,59.17586670691638,17.66456302596123
7470074,Björkbacken,59.27706681251436,17.62846050909128
7470073,Prästgårdsvägen,59.196359563590626,17.586739363659284
7470072,Överenhörna kyrka,59.29926108221246,17.403521955241242
7470071,Nöttesta,59.28681886222753,17.41578413684379
7470070,Jurstavägen,59.28398484494877,17.419159674586357
7470069,Årby skog,59.275503683027814,17.42756480505729
7470068,Årby,59.26777562784332,17.43815900924111
7470067,Rösta,59.25984198447331,17.447896925172284
7470066,Lill-Ahl,59.25358243687582,17.448735393472912
7470065,Stjärna,59.25257077503632,17.466901094331853
7470064,Väsby,59.25183777258956,17.475770859644182
7470028,Pålsundsvägen,58.98720908310644,17.635375050056233
7470029,Nora,58.99124212506664,17.645419056127768
7470030,Idala,58.99097215612111,17.65554789918892
7470031,Egelsvik,58.99351923179268,17.67390197291664
7470024,Rosendal,59.050496057569944,17.425246153204863
7470025,Hälleby,59.00858301143721,17.59655998797619
7470026,Sörby,59.0045840961863,17.59809279491511
7470027,Pålsundet,58.9884193992436,17.62467050593084
7470020,Brandalssund,59.1128874407416,17.642504641075163
7470021,Mikaelsgården,59.107639984941024,17.636410642743897
7470022,Farsta,59.10115882779877,17.627355625536907
7470023,Solåkrabyn,59.097436060108976,17.62262066388862
7470016,Bränninge gård,59.13929837370109,17.64858432496325
7470017,Glibotorp,59.12907446784905,17.649624781982798
7470018,Vallstugan,59.12070292719579,17.64920994384364
7470019,Brandalssunds skola,59.11714651674341,17.641021230031438
7470045,Solviks grindar,59.061072453653765,17.49772472142194
7470044,Simsjön,59.06690353894655,17.52610117042965
7470047,Vårdinge,59.03478563646545,17.34925573571532
7470046,Järna Eneskolan,59.08443856462958,17.557019291213397
7470041,Saltsjöbron,59.18876648178843,17.64837710561517
7470040,Björkarö,59.026884875437716,17.67335979605262
7470043,Bankesta,59.07784556360521,17.541840435477834
7470042,Kolonivägen,59.086658501123644,17.562837370913154
7470037,Grönbrink,59.00612854000311,17.661861306258057
7470036,Mörkö kyrka,58.99826531630377,17.664187635634587
7470039,Kumla,59.017182992255016,17.66804578846458
7470038,Mörkö bygdegård,59.01343144823992,17.66479637944578
7470033,Lisstorp,58.97655287315609,17.69279226653761
7470032,Skäsa,58.98475137156077,17.6834991758815
7470035,Björnhagen,58.97066884829404,17.702799329513798
7470034,Söräng,58.96881588582074,17.694421118509794
7469616,Söderby,59.06038328456763,18.067228775105328
7469617,Hästbyn,59.05722740544726,18.067962741032424
7469618,Söderby torg,59.05410024445543,18.07167941402454
7469619,Söderby brygga,59.05225771280357,18.07382416701633
7469620,Östnora,59.0602557617021,18.04612346448898
7469621,Västnora,59.05749032043969,18.037766817776614
7469622,Fredriksborg,59.055429099569906,18.030206673372188
7469623,Häringe grindar,59.05134162750376,18.01611982500722
7469624,Sotholmen,59.04574472975184,18.007813256397398
7469625,Landberga,59.03846663027521,17.99534248774926
7469626,Landfjärden norra,59.03517691115392,17.991265508475838
7469627,Landfjärden södra,59.03068508612448,17.988175801866852
7469628,Hammersta,59.024109626961874,17.980287402760403
7469629,Ekeby,59.01235055094208,17.963893128657574
7469630,Björklida,59.00733855481726,17.958026124967393
7469631,Jursta,59.00447550058261,17.952520934417073
7469601,Nor,59.09248782301197,18.271284848983846
7469600,Västra Bondäng,59.072456678424075,18.211728757450793
7469603,Tomta,59.09424357929053,18.28612465161977
7469602,Morarna,59.08701085654761,18.281117694507998
7469605,Apelviksudd,59.10176343061801,18.314932387490504
7469604,Nedre Bihagen,59.087704188882626,18.293697312677885
7469607,Ribbylund,59.110999502399714,18.113430373943253
7469606,Ljushagen,59.09814376220845,18.2967752859283
7469609,Alvsta,59.09739599645947,18.13044225269409
7469608,Fors,59.10214925280948,18.11419722361048
7469611,Kristinero,59.08627543686807,18.083013825999966
7469610,Ribbygaraget,59.104994656488685,18.116291509964135
7469613,Gryt,59.07110224327656,18.06123643170147
7469612,Katrineberg,59.076129706015216,18.072137112532488
7469615,Gansta,59.06546965399365,18.06599381610985
7469614,Gryts trafikplats,59.06710527387033,18.0633459623275
7469586,Prästgården,59.121676685931625,18.14356305441745
8600626,Köbenhavn H,55.67305735303977,12.56447382807803
7469587,Husbyvägen,59.12296711627545,18.155651422263958
7469584,Bastuvägen,59.26172309472631,18.18917667617777
7469585,Runstenstorget,59.170806318804,18.139167147047008
7469590,Björnövägen,59.11315973574835,18.2770483383055
7469591,Vilan,59.10958382019489,18.27146501978673
7469588,Österhaninge kyrka,59.12562424070059,18.17005345829628
7469589,Hamra,59.126660240881634,18.175785112050825
7469594,Frönäsvägen,59.09069349972694,18.244105278799132
7469595,Liåker,59.08744857396422,18.244258878798576
7469592,Stegsholm,59.104789333634024,18.266668532110184
7469593,Hasslinge,59.10067702068223,18.25047029231072
7469598,Östra Bondäng,59.07469790438477,18.22160179269536
7469599,Oxnö,59.07350861202506,18.216982990562688
7469596,Sunnansund,59.08223176649043,18.240381673620835
7469597,Dyvik,59.07600100410751,18.229735275982613
7469571,Lagervägen,59.13723917628033,18.118516252706524
7469570,Armaturvägen södra,59.137578209876686,18.113593655533894
7469569,Armaturvägen norra,59.141573061449485,18.113670312145356
7469575,Fredrika Bremerskolan,59.16797482851615,18.150290788604686
7469574,Folkparken,59.174270406380955,18.140295414360462
7469572,Rörvägen,59.1386908412933,18.12020445838644
7469579,Slipstensvägen,59.19766679442254,18.11853903212098
7469578,Svarvarvägen,59.202605403435754,18.12008106476287
7469577,Gammelhagen,59.14327641725314,18.13545781999498
7469576,Mostensvägen,59.150389132219715,18.135941301453606
7469583,Bäckalidsvägen,59.260963953216624,18.195314836407192
7469582,Odlingsvägen,59.258395519309296,18.200203311625277
7469581,Sigfridsborgsskolan,59.25638265489809,18.196852907527163
7469580,Alpvägen,59.258476976034835,18.189896967580957
8600661,Skodsborg,55.82348579817706,12.570801136036113
7469684,Risdalsvägen,58.99710201265694,18.105838020948077
7469685,Mälby,59.001923448659106,18.112460747126377
8600663,Rungsted Kyst,55.88222096678071,12.531649248666175
7469686,Valingevägen,59.00734379231417,18.12424381780563
8600662,Vedbaek,55.853140791358996,12.562216203701368
7469687,Korsvägen,59.00755878907327,18.130786730621768
7469680,Tunneln,58.97234904032173,18.061092966420084
7469681,Södra Muskö,58.96982258406023,18.061779999021866
8600659,Klampenborg,55.775407105989025,12.587943448717608
7469682,Guldbodasjön,58.975024161913275,18.07502519722058
7469683,Arbottnavägen,58.99026975111103,18.09915307035066
8600669,Helsingör,56.03370131274566,12.61448618594589
7469692,Ropudden,59.025574059791005,18.151685521622735
8600668,Snekkersten,56.00989146591054,12.585300067228394
7469693,Notvarpsvägen,59.02481851988342,18.16164946847508
7469694,Mörholmsvägen,59.02491767552621,18.167055891250648
7469695,Herrstugan,59.02503136617105,18.17263753685785
8600665,Nivå,55.932732348500785,12.505260673098268
7469688,Mickrums brygga,59.01729918894393,18.132976451847643
8600664,Kokkedal,55.90346268207802,12.502950379805458
7469689,Kanalbron (Muskö),59.017600293525156,18.139701307511256
8600667,Espergaerde,55.99411661278994,12.549284791371738
7469690,Nässelviken,59.02108047410362,18.145910824539047
8600666,Humlebaek,55.96460889108391,12.532859617707539
7469691,Torpa skog,59.02349488914018,18.148966140031906
7469669,Trasthammar,58.91618341609088,17.88384183065226
7469668,Rydsberg,59.09029068449757,17.91675069930885
8600646,Nörreport,55.683518093502855,12.569572828705297
7469671,Guldbodavakten,58.973763287921585,18.06650726377227
7469670,Lilla Hållsättra,59.10807219830269,17.981360361727724
7469665,Vineberg,58.92991348374995,17.83864006767741
7469664,Djursnäs vägskäl,58.93048693443873,17.81746654326185
7469667,Järflottavägen,58.91344348880525,17.901159304756565
7469666,Norsbol,58.92083755008149,17.867972779944743
7469677,Yxlö kanal,58.95274079388944,17.99917030506501
7469676,Herrö,58.96329385157656,17.987931127218353
7469679,Byviken,58.96048075861806,18.02294012838953
8600655,Hellerup,55.73048690598843,12.566958116915245
7469678,Yxlö,58.953413248768896,18.014543233058905
7469673,Sittesta,58.97698943142325,17.91967802451046
7469672,Urvägen,59.02538179483335,18.155852834304515
8600650,Österport,55.69352315430124,12.589143334461053
7469675,Himmelsö,58.95605421547426,17.969847982287938
7469674,Vidbynäs vägskäl,58.967410254862145,17.95498008834762
7469654,Fagerviks skola,59.05063673056,17.856276841310457
7469655,Olivelund,59.04660090715484,17.85084301672966
7469652,Grödbylunds tomtområde,59.065048389552466,17.874973911174937
7469653,Trollsta malm,59.060215985392915,17.87224240110682
7469650,Vinaren,59.07691998385081,17.878880498596338
7469651,Grödbylund,59.07089897255498,17.87804659680773
7469648,Västerby,59.087066946888825,17.9084566417412
7469649,Grindsjön,59.08169907960407,17.88885096036781
7469662,Sälldalen,58.97142619151228,17.775943937748035
7469663,Brunn,58.93262614969973,17.800516567625884
7469660,Grönlund,58.9784784996916,17.77631171532967
7469661,Fridhem,58.974314031785454,17.776178321317648
7469658,Sundby,58.989825017397195,17.79300113628666
7469659,Svalsta,58.98415820097087,17.783663856590362
7469656,FOI-vägen,59.07913225979024,17.879798905170812
7469657,Dalhems gård,59.11231968820301,18.005866226954538
7469639,Västra skolan,59.11782032691002,18.017204006575
7469638,Skogs Ekebyvägen,59.113506381034504,18.033166053440496
7469637,Vädersjövägen,59.110039898204626,18.037358673035232
7469634,Ösmofors,58.99446074647101,17.931415892133128
7469633,Forsbro,58.99786545973189,17.937890926155088
7469632,Ogesta,58.99929727425526,17.943096232450806
7469647,Lundby kvarn,59.092182356954034,17.923550642181684
7469646,Stora Lundby,59.090663821478955,17.929651860043037
7469645,Lundby,59.0919397244787,17.933988750868625
7469644,Ekbacken,59.09768050545036,17.951274684682094
7469643,Hjälmsätersvägen,59.101943017839055,17.96606446380163
7469642,Sofielund,59.10693332511817,17.974828458403035
7469641,Ekdalen,59.108199730395974,17.987671297522162
7469640,Ålsta,59.110082313930896,17.99692275400366
7469753,Hässelmara (Ornö) brygga,59.089067669499805,18.415802309726608
7469752,Brevik,59.07484774070141,18.367743206495195
7469755,Ornö gruva,59.05964700933884,18.424606930270752
7469754,Västergårdsvägen,59.071075465470045,18.419948075542568
7469757,Ornö kyrka,59.051791339568766,18.429343501518208
7469756,Lugnet,59.056567728334784,18.428539633367304
7469759,Vargvik,59.04519377257452,18.425162695067506
7469758,Almvik,59.04770569879133,18.427968635668055
7469745,Nygatan,58.91647057468142,17.950408237884464
7469747,Kvarnvägen,58.92173827712986,17.93486330275233
7469746,Gymnasiet,58.9214724938714,17.933006277862646
7469749,Månbergsvägen,58.90800584149702,17.94965798063862
7469748,Bäckvägen,58.92388199472997,17.932286180036833
7469751,Skinnardal brygga,59.101608943487534,18.431211485384498
7469736,Videgatan,58.89374326947027,17.92693009924044
7469737,Valthornsvägen,58.89655961720973,17.92932372593754
7469738,Gröndalsskolan,58.90166872821563,17.93699558721934
7469739,Sigyns väg,58.904259540617055,17.938352688083338
7469740,Heimdal,58.9054917230455,17.93986922281511
7469741,Heimdalsplan,58.906708901022704,17.941749446527602
7469742,Alkärrsplan,58.90409752391768,17.945441341874215
7469743,Viaskolan,58.91018753848349,17.950227127502938
7469728,Storuddsvägen,58.838932841497055,17.839613491906896
7469729,Lotskyrkogården,58.80488383954189,17.828586618805904
7469730,Norrskogs brygga,58.853136041753395,17.831798623569096
7469731,Hillersjö,58.91768283350333,17.860249400510053
7469732,Byviksvägen,58.8424082692466,17.84187883652374
7469733,Sandhamnsvägen,58.891862064281554,17.93647875516048
7469734,Toppstigen,58.89192112252212,17.933983998022754
7469735,Hamnviksplan,58.892536628606294,17.930412978691695
7469723,Sågstensvägen,58.82982219186135,17.842214340672463
7469722,Norrskog,58.85071988763715,17.839264842335876
7469721,Ekudden,58.85839053537759,17.827703132508425
7469720,Stattnäsvägen,58.867329234177845,17.828033782503624
7469727,Herrhamra,58.80829097034945,17.825479223379435
7469726,Herrhamra grindar,58.81408868700549,17.827408867323093
7469725,Treviksvägen,58.8191388452808,17.834056700853083
7469724,Eneby affär,58.8267559315343,17.839627446569796
7469715,Lyktan,58.8973832056321,17.841848638491513
7469714,Tottnäs,58.902499540901246,17.839702547074225
7469713,Malhuvud,58.90758964403564,17.84663217557046
7469712,Eknäs,58.91177076834166,17.851965088040956
7469719,Ängsudden,58.8722190230857,17.828301752416497
7469718,Lillgården,58.87884149347629,17.83203547888278
7469717,Svärdsund,58.88175018432322,17.83437363719209
7469716,Eksjö,58.891911569658106,17.838612221169313
7469706,Brebol,58.92516059650594,17.773186248210337
7469707,Vreta skola,58.914364281956864,17.78220735466885
7469704,Sandvik,58.93666860205549,17.759214287017297
7469705,Stennäs,58.93228560399653,17.765810174473252
7469710,Dyviksvägen,58.89692186815054,17.79476329751251
7469711,Maren,58.883368197470844,17.787966385589552
7469708,Skärlinge,58.90623340039291,17.78835581065931
7469709,Frönäsvägen,58.89955060025426,17.793161659986463
7469698,Hasselbacken,59.04126874776149,17.885724421752677
7469699,Norra Rangsta,59.043403575505124,17.879144408824033
7469696,Himmelsöbron,58.95967222021263,17.961834608279712
7469697,Åby gård,59.040913214147665,17.893317564223526
7469702,Fållnäs skola,58.967508493077155,17.77198216233132
7469703,Fållnäs,58.95769430780313,17.766626012024883
7469700,Björkhagavägen,59.05006309534617,17.86922746332622
7469701,Bredstäk,58.92369448799431,17.774526789124838
7469820,Södertälje Balticvägen,59.17520237890653,17.650690849509907
7469823,Aska,59.25379585543209,17.456704868781497
7469822,Bastmoravägen,59.24588303814457,17.539104365373106
7469818,Gåshagen,57.592458560424454,18.276460251654363
7469813,Rosendal,59.09609858608337,17.94538145298052
7469812,Sorunda kyrkskola,59.008971371198996,17.81093848875764
7469814,FOI,59.08061078039008,17.87493378675354
7469809,Andregatan,57.62069438061705,18.284069110854116
7469808,Ekhamra vägskäl,59.09946066165846,17.957111070403393
7469811,Solsa,58.91909483014792,17.862937737269977
7469810,Kvarnängens idrottsplats,58.925072218551,17.92378029658488
7469804,Hammarvägen,59.01675083739691,18.136004257826947
7469805,Åbygången,59.13270597072794,18.09663188553819
7469806,Åbylund,59.13424317675656,18.10213383182203
7469807,Älgviksbron,58.94537959867602,17.910897600551376
7469800,Ormsta vägskäl,59.10552035609239,18.12809414950694
7469803,Skarpavägen,59.00484520446704,18.131369643480177
7469796,Lillsjövägen,59.15993047585403,18.110028114129154
7469797,Lillsjövägen södra,59.15690297326088,18.113129167256243
7469798,Kvartärvägen,59.13120980253942,18.0954137598169
7469799,Östergården,59.10040594270408,18.12935424444164
7469793,Hanveden,59.125806585516436,18.10845189529816
7469795,Silovägen,59.15314212691199,18.107456194030405
7469790,Sänna norra,62.12710919131733,14.971998299889412
7469787,ICA-Maxi,59.181719564147045,18.158966249005758
7469786,Cementvägen västra,59.148491571913524,18.10637473615529
7469785,Söderby gård,59.182265524836616,18.15956372698016
7469784,Vardövägen,59.18909773828103,18.122177710425497
7469780,Tromsövägen,59.19310684643417,18.135524312511123
7469779,Jökelvägen,59.19155160479818,18.12859232131945
7469778,Port 73,59.17940178082472,18.151563271354288
7469777,Estögaraget,58.894376596574986,17.934291079631862
7469776,Bergshöjden,58.9877322914759,17.900711333067967
7469774,Tärnvägen,58.98813798221169,17.888922647828622
7469775,Musköten,58.98979437861587,17.89535588863043
7469772,Sjögången,58.884710954904264,17.935570504596107
7469773,Trymstigen,58.984103760201485,17.887948441715324
7469770,Trossvägen,58.887916157415845,17.935611470871002
7469771,Nickstastigen,58.9103319893606,17.933328211942708
7469768,Oskarsbron,58.89464903895301,17.94227208399022
7469769,Hembygdsgården,58.89347394214816,17.939475511414958
7469767,Svandammsskolan,58.89933030315902,17.943741035401825
7469764,Nickstahöjden,58.91168998720827,17.934297062860324
7469765,Rumbagången,58.91435235549917,17.9373080895263
7469762,Lättinge kvarn,59.04477504034184,18.37474152886764
7469763,Lättinge (Ornö) brygga,59.04487303086948,18.365249730984786
7469760,Grönviksbacken,59.04274935713878,18.418562823570657
7469761,Sundby,59.03316594341884,18.38901639493037
7469317,Diskarve,57.53783559753289,18.428270612488603
7469316,Nibble gård,58.980001574805655,17.903981723250254
7469319,Lidatorp,58.95794274680466,17.905353250912675
7469318,Djupvik,57.29912290193086,18.171162985993632
7469313,Sjövik,58.98574015296165,17.850626733588886
7469312,Blista,58.98776994214572,17.83976910908893
7469315,Akebäck vägskäl,57.57037423949162,18.39683928178591
7469314,Vansta,58.9820519297289,17.876465706064298
7469325,Sandtorp,58.91685861284716,17.93998006789202
7469324,Natviksvägen,58.919366980249826,17.934352709304694
7469327,Malmtorget,58.91228458851799,17.949402283338785
7469326,Kullstaplan,58.915108222530044,17.945913929435
7469321,Björsta,58.94835974202273,17.904336449003587
7469320,Älbylund,58.95490956309869,17.903013590413906
7469323,Vattenverksvägen,58.92971334213332,17.921129245298378
7469322,Älgviken,58.94044214764214,17.913011876245033
7469332,Korsvägarna,59.031121302076485,17.830169972282157
7469334,Masten,59.24691902496786,18.216228719150212
7469335,Töresjövägen,59.24400030803898,18.21477801245723
7469328,Industrivägen,58.91074105442703,17.952587598912192
7469329,Skeppargatan,58.9061049090028,17.952733937337182
7469330,Fredsgatan,58.90381783071931,17.948773753143236
7469331,Backluravägen,58.9157191199697,17.940465353740688
7469340,Bergfotens skola,59.23933748169388,18.21876091374762
7469341,Kanelgränd,59.23274318057436,18.227600555448515
7469342,Granängsringen,59.23806959055881,18.228994852534544
7469343,Kamomillgränd,59.234060992703995,18.224346688047607
7469336,Bergfoten,59.242999158100176,18.2154962128462
7469337,Bollmoraberg,59.24277510603679,18.224665910903923
7469338,Vitlöksgränd,59.23456708924201,18.23044632385829
7469339,Koriandergränd,59.232067078303636,18.233037683718976
7469351,Strandallén,59.24564974124311,18.273869447154393
7469350,Vattugatan,59.32971246515095,18.06104396813167
7469349,Nyfors,59.22720607816865,18.260446810938877
7469348,Krusboda torg,59.23060960901292,18.256643427247308
7469347,Lummergången,59.23427171821552,18.250544468330045
7469346,Tranbärsvägen,59.23857126230418,18.247311687673392
7469345,Fårdala skola,59.241714527725904,18.241558981948806
7469359,Tyrestavägen,59.180250333757975,18.180491842302395
7469358,Klenavägen,59.185587652791995,18.183277193684066
7469357,Djurgårdsvägen,59.192197212889745,18.185731865490048
7469356,Skomakarvägen,59.19377542879685,18.18928999626417
7469355,Grindstugan,59.204424480367706,18.200135325618675
7469354,Gudö,59.21021990099969,18.20824681610867
7469353,Sidvallsvägen,59.24886782197606,18.242262255117573
7469352,Videvägen,59.242427658586344,18.279912192975736
7469366,Skyttens gata,59.17150164933336,18.17960520083957
7469367,Dalgårdsvägen,59.283893484401354,18.099798488489565
7469364,Vädurens gata,59.16719850781149,18.168357815385207
7469365,Vattumannens gata,59.16685604553433,18.172864206024165
7469362,Klockarleden,59.166895165025686,18.16280992503867
7469363,Söderbyleden,59.170100353575684,18.161368792878346
7469360,Evertsbergsvägen,59.17821712905766,18.174786990008915
7469361,Mårtensberg,59.190684368792326,18.178590566535874
7469374,Lovisedalsvägen,59.247927602222624,18.190738066292667
7469375,Linblomsvägen,59.24705754400738,18.200459944338743
7469372,Ältaberg,59.24860419694486,18.17681203457026
7469373,Kolonivägen,59.24756966913169,18.178388172582785
7469370,Listuddsvägen,59.263920356242615,18.142287524409724
7469371,Ältasjön,59.260530317702276,18.15848877382052
7469368,De Gamlas väg,59.28141764236525,18.10575641995918
7469369,Orhems vägskäl,59.26134411042261,18.13220177293461
7469377,Radiovägen,59.243042465570255,18.206839606043037
7469376,Antennvägen,59.242830006643565,18.200338740767734
7469379,Sikvägen,59.24774347601718,18.230821105511414
7469378,Granitvägen,59.24195889538999,18.214931982753775
7469381,Petterboda,59.247319505094374,18.24772695150094
7469380,Bäverbäcken,59.24954582406718,18.236261696623817
7469383,Rotvik,59.24696475633829,18.264654996912924
7469382,Öringe,59.24651543866597,18.256102192857124
7469385,Tjärnstigen,59.25127386802137,18.27564379674402
7469384,Slumnäsvägen,59.248602978853945,18.27394270887153
7469387,Edinsborg,59.240360092282664,18.30772084999604
7469389,Orrnäset,59.23763750973756,18.32129803567032
7469391,Hansbo,59.23608140730461,18.33762360081561
7469390,Måsvägen,59.23467648099963,18.328581111717707
7469392,Nordal,59.235736717084976,18.34332929232155
7469393,Östralid,59.23492105100168,18.34738738147825
7469394,Björkgården,59.23297757390198,18.348031400274643
7469395,Tjädervägen,59.229543441942006,18.351420732628377
7469396,Breviks skola,59.23012612902388,18.334904088504313
7469397,Nötskrikevägen,59.22795942528179,18.342401116299786
7469398,Krönet,59.22833333915142,18.368222795548412
7469399,Björndalen,59.224663119921374,18.371714592889422
7469400,Sjöberga,59.22212979263962,18.37856738478331
7469401,Borgviken,59.21991092794247,18.38313042556064
7469402,Bergshyddan,59.21592731513979,18.38202423693372
7469403,Tegelbruksvägen,59.22565140705531,18.348835396419435
7469404,Sandkärr,59.213176827597856,18.373514625020704
7469405,Väpnarstigen,59.21195244189458,18.369114025932106
7469406,Solstigen,59.20810004931208,18.374096523595
7469407,Ällmora,59.205668698221864,18.37578762465601
7469411,Flygledargatan,59.26443504726562,18.122537423470696
7469410,Orhem,59.24793141197129,18.140018497927667
7469409,Orhems grindstuga,59.24988557047382,18.136207251824814
7469408,Listuddsfältet,59.25819006923646,18.135827350727528
7469415,Skogsängsvägen,59.22724152002476,18.19928115266587
7469414,Hanviken,59.23348915511859,18.193077071848307
7469413,Skarpnäcks gård,59.26452284651308,18.14124128793145
7469412,Skarpa by,59.26697532154217,18.139690115924523
7469419,Alstäde,57.34477988999699,18.254813408516316
7469418,Södergården,59.21907420966902,18.20972755524562
7469417,Kumla skola,59.22068212794198,18.20630198685702
7469416,Trångsundsvägen,59.22399761533674,18.195970436125876
7469423,Persuddevägen,59.22668753452201,18.18051222751498
7469422,Näckstigen,59.227844590915936,18.18206447323079
7469421,Stupvägen,59.2259813683054,18.18720863907393
7469420,Fornuddsvägen,59.224733098096415,18.195531318697192
7469426,Poppelvägen,59.21712260577235,18.188413077438703
7469427,Bränneribacken,59.21963126415219,18.19167105499309
7469424,Oxelvägen,59.2241855316478,18.180811378823325
7469425,Konvaljevägen,59.2210910175017,18.183556897792055
7469430,Marsvägen,59.22735223086976,18.22339866915903
7469431,Njupkärrsvägen,59.22942320731104,18.224070910451253
7469428,Långsjövägen,59.220770831755004,18.21510237819696
7469434,Stjärnvägen,59.23440593785748,18.203288221235933
7469435,Lindalsvägen,59.23910074320482,18.201444393747305
7469432,Allfartsvägen,59.23000087945391,18.22004645525028
7469433,Uddbyvägen,59.23102632499907,18.214143397646552
7469438,Solkraftsvägen,59.23706061074982,18.19469378271253
7469439,Ramsdalsvägen,59.174330340333746,18.18599430033842
7469436,Njupgränd,59.231243236185186,18.22519860640734
7469437,Jungfruvägen,59.229000381133396,18.19935181076801
7469452,Blåklintsvägen,59.227885620829426,18.147619821774516
7469454,Edboskolan,59.22327299698488,18.153417897840296
7469455,Ågesta friluftsgård,59.22323482179094,18.10325832991456
7469448,Rondovägen,59.2138668218039,18.16603029855366
7469449,Stortorpshallen,59.23463581733029,18.133274034813223
7469450,Spelvägen,59.230433467275596,18.134757521178685
7469451,Tjäderstigen,59.22646369917231,18.139795706779054
7469444,Runsätra äng,59.2413456375091,18.122618405309236
7469445,Stortorps äldrecentrum,59.23986012500441,18.12987918867213
7469446,Rapsodivägen,59.216471865661205,18.15855579462357
7469447,Sopranvägen,59.21577914241104,18.166057249324023
7469440,Kulfångsgatan,59.17548559441164,18.16845729677467
7469441,Strandkyrkogården,59.23985630425641,18.186213035171367
7469442,Vendelsö gård,59.20614901093473,18.191815939485128
7469443,Västra Strandvägen,59.20140768041125,18.190329611431544
7469469,Bussgaraget,59.17091443931443,18.148130581454488
7469468,Myrmalmsringen,59.18205415826809,18.161316501273998
7469471,Kvarntorpsvägen,59.180774192535466,18.14467586512992
7469470,Kolartorpsvägen,59.178051265495284,18.142285337133504
7469465,Rudsjöterrassen,59.16531533688525,18.138390803054477
7469464,Odenvägen,59.16374033953368,18.141081727676088
7469467,Torvalla,59.1674700161216,18.156360455513493
7469466,Söderbymalmsskolan,59.16793948533593,18.14677271287479
7469461,Ullerudsbacken,59.232415444302774,18.099529898643436
7469460,Magelungsskolan,59.23298741423755,18.10375650828263
7469463,Idunvägen,59.16351887471025,18.14440693892516
7469462,Vikingaskolan,59.163170773508455,18.149769594616156
7469457,Ågesta värmeverk,59.207052066156635,18.07979254066874
7469456,Ågesta gård,59.22126495233937,18.080965894574557
7469459,Pelikanvägen,59.194462822475046,18.06118922458664
7469458,Ringsättravägen,59.19881181991687,18.070334069265797
7469486,Karlslunds plan,59.08781147604513,18.17868869391967
7469487,Lotsvägen,59.08515168000352,18.177301035551242
7469484,Österhaningevägen,59.12958573782266,18.192567676965947
7469485,Stymningevägen,59.093185328236245,18.179478793645167
7469482,Högstavägen,59.14081051031226,18.185274611748596
7469483,Klockarlötsvägen,59.13440024821539,18.189093440588834
7469480,Svartbäcksvägen,59.1651471150282,18.179899332756783
7469481,Albyvägen,59.143665785994166,18.182851007419327
7469478,Järnåldersringen,59.18682869394854,18.167420325485402
7469479,Skäggsmo,59.16464707074834,18.16248032841471
7469476,Flodvägen,59.19997054516141,18.169693236134577
7469477,Fornpasset,59.18309103281544,18.16653246798493
7469474,Norrby torg,59.195328840421546,18.157749213803402
7469475,Norrby centrum,59.197904153849905,18.160342142577726
7469472,Smultronvägen,59.18966653282374,18.156519906021085
7469473,Norrby gård,59.19292772026951,18.156446410711993
7469503,Schweizerparken,59.141176573991665,18.396085119616185
7469502,Malmvägen,59.13999579779702,18.38818319699617
7469501,Sandemar,59.135202968229706,18.36398558916385
7469500,Svärdsnäs,59.12914992810631,18.337867290436524
7469499,Lövliden,59.12581556442924,18.322753794522598
7469498,Ösbybro,59.125193989287425,18.31589486142898
7469497,Ekhagen,59.123956267656745,18.308834008378465
7469496,Karlslunds marina,59.12171513637979,18.301159168674992
7469495,Gålövägen,59.11580676770162,18.276697546407902
7469494,Ekbacken,59.12027396934281,18.248984396215505
7469493,Valsta,59.12035151180504,18.241513985311425
7469492,Lännåker,59.12232666304601,18.224256021824417
7469491,Södersund,59.12520380095038,18.212963966421885
7469490,Flottans plan,59.08307099166847,18.151962985081088
7469489,Runda plan,59.0821650440288,18.156367605020556
7469488,Utövägen,59.08421004107692,18.17280417181863
7469512,Bryggerivägen,59.14157375077408,18.43086342974994
7469513,Holmdal,59.14479096878323,18.434763326248028
7469514,Djupviksvägen,59.14764090681862,18.43417777272978
7469515,Vadviksvarv,59.15276978313177,18.435480431194968
7469516,Långuddsvägen,59.15409060645056,18.437225454377337
7469517,Almedalsvägen,59.15767021888461,18.439633890710788
7469518,Söderviken (Dalarö),59.16182732651436,18.448978186867695
7469519,Borgvik,59.159665054041476,18.44179845119183
7469504,Kolbotten,59.14532400930957,18.411886621996505
7469505,Västra Vadviken,59.14369339870125,18.415713141851658
7469506,Malmgården,59.140049790341926,18.41557555474299
7469507,Kanalbron (Dalarö),59.13769855213291,18.415483951357647
7469508,Svärdsnäsviken,59.13175920299442,18.348648926489403
7469509,Dalarö torg,59.133342088697816,18.408354677935286
7469510,Friggavägen,59.13894761115645,18.42526169742881
7469511,Skärkarlshöjden,59.1403629560009,18.428113974063926
7469529,Södra Jordbrovägen,59.15033450988909,18.133979630939788
7469528,Kvarntorps industriområde,59.18599225965209,18.14664247650855
7469531,Tuvvägen,59.15778313686757,18.135762217798437
7469530,Vallavägen,59.161975105534935,18.137866058661043
7469533,Blockstensvägen,59.144718397435255,18.130661732052374
7469532,Sjukhusentrén,59.17346575686513,18.1420948750106
7469535,Lundaskolan,59.13644842578026,18.134120181908077
7469534,Sandstensvägen,59.13756310710835,18.125528167070115
7469520,Fryksdalsbacken,59.238066186888325,18.114631660005298
7469523,Länna norra,59.20970992671402,18.14460605466016
7469522,Sjötorpsvägen,59.21376967480236,18.146565171363317
7469525,Länna gård,59.20045181573148,18.1395785912701
7469524,Vallmyravägen,59.20588374026453,18.14014190888134
7469527,Hallstens väg,59.18894833815713,18.145059535348924
7469526,Vega,59.19393517487591,18.141409571537917
7469546,Hammarbergsvägen,59.10828631197519,18.04688249154396
7469547,Lidaskolan,59.11489586654213,18.059835190416617
7469544,Holmvretsvägen,59.11782758378897,18.065791123151776
7469545,Lillgården,59.09739486155545,18.044199434498417
7469550,Håga,59.12069227749375,18.081210402613724
7469551,Norrskogsvägen,59.12292431119549,18.098791012464872
7469548,Mulstavägen,59.11940537257509,18.074697705239856
7469549,Verkstadsvägen,59.11751616373164,18.080021782371333
7469538,Kvarnbäcksskolan,59.14866939796822,18.141191026772002
7469539,Fräsarvägen,59.20176705721779,18.125801971080573
7469536,Lerstensvägen,59.14246453914352,18.141659686984053
7469537,Sommarbo,59.14464395040605,18.142315083606153
7469542,Mårdvägen,59.176047080315215,18.146364840251984
7469543,Söderbytorp,59.17705095071364,18.15939764556322
7469540,Speditionsvägen,59.19948908736227,18.119082407121265
7469541,Smärgelvägen,59.19982693267654,18.123306930583016
7469563,Örtagårdsvägen,59.12183487020335,18.088762023356214
7469562,Åbyinfarten,59.12645456153637,18.10837310385752
7469561,Tyresta by,59.16982583722226,18.235761266031293
7469560,Nedergården,59.14791580153419,18.13264413913063
7469567,Dåntorpsvägen östra,59.14523725935012,18.123740236919627
7469566,Tallkrogen,59.26855917324267,18.087329721158348
7469565,Sockenvägen,59.28010605702665,18.09150665233571
7469564,Torfastleden,59.1833766786598,18.148265953400823
7469555,Rådjursvägen,59.128346063726035,18.10044623464223
7469554,Ribby,59.11573002915857,18.1069724278141
7469553,Ribbyskolan,59.11939735563126,18.107794733148296
7469552,Åbyplan,59.12463033648937,18.10590988944975
7469559,Svartbäcken,59.168839942020924,18.198399003791916
7469558,Svartbäcksskolan,59.17082533002261,18.192012993574213
7469557,Haningealpen,59.16794388170825,18.219168408912605
7469556,Björnvägen,59.12984599472448,18.108041692028863
7469078,Källvägen,59.215493401053614,17.88503549402032
7469079,Trädgårdstorp,59.21836011808991,17.884894588468196
7469076,Lida,59.16280100948157,17.882815890332918
7469077,Blickagången,59.219629049803125,17.941250535794122
7469074,Flygklubben,59.17294763072998,17.927301244722972
7469075,Björkhult,59.17105730177812,17.924280610828546
7469072,Sundby gård,59.200891177756795,18.01630485104308
7469086,Alby Lagmansbacken,59.23992182938289,17.84677321305509
7469087,Segersbyvägen,59.23470939266944,17.834423280348922
7469084,Notariebacken,59.24313392833537,17.850365546720944
7469085,Advokatbacken,59.24232308878646,17.85396267730036
7469082,Almvägen,59.21968510003942,17.89746399304565
7469083,Myrstuguvägen,59.24543894401372,17.887349442096454
7469080,Vintervägen,59.219536759819285,17.891044130201717
7469081,Kungsholms,59.22890395299477,17.83530503149005
7469063,Smista,59.27755033007304,17.934506832452886
7469062,Juringe allé,59.27583210676633,17.92699562795913
7469061,Ekgårdsvägen,59.27321354862237,17.919604841318495
7469060,Ekholmsvägen,59.27241220303217,17.9108713572318
7469059,Lindholmsbacken,59.26891231539729,17.90684893834749
7469058,Lammholmsbacken,59.26754692640438,17.89795951650049
7469057,Jägerhorns väg,59.27452268265072,17.920826348742683
7469056,Hamnvägen,59.25507741853881,17.876434895101884
7469071,Riksten,59.18900360066155,17.915696257701338
7469070,Brantbrinks IP,59.19329536300516,17.904076727111526
7469069,Lavretsvägen,59.1925340947051,17.80714022067535
7469068,Ekorrvägen,59.19650664106038,17.900947900974376
7469067,Alice Tegnérs väg,59.1986348575194,17.902058526804804
7469065,Tallåsvägen,59.28140400517987,17.954646696828704
7469064,Perstorpsvägen,59.24090929847661,18.116857133442636
7469108,Målarstigen,59.200279682919835,17.780950081582247
7469109,Snickarstigen,59.204563772524466,17.774964781320392
7469110,Storskogsvägen,59.199252335096205,17.764576304178068
7469111,Skogsängsskolan,59.19691432815368,17.760626681170557
7469104,Söderby Sjukhusväg,59.19912108924002,17.791578618813514
7469105,Segersjö,59.195127196977644,17.812507744188444
7469106,Vattravägen,59.19701271144965,17.80143339321255
7469107,Tumba bruksmuseum,59.20052308818845,17.811388795752183
7469116,Korsnäs,59.15305042546297,17.80373286341781
7469117,Grödinge kyrka,59.14399763530782,17.789189019002006
7469118,Prästgårdsvägen,59.14038919157184,17.783807768711775
7469119,Marieberg,59.136344478659865,17.776393216911845
7469112,Tvärvägen,59.20026438990372,17.751592850305745
7469113,Uttran,59.1975902786167,17.799489121183786
7469114,Sjövreten,59.15835859884742,17.81005686572457
7469115,Smällan,59.15573585799664,17.819396612702608
7469093,Samaritvägen,59.204022456776464,17.835281611437004
7469092,Tuna,59.206239149663794,17.825555772572958
7469095,Annerstavägen,59.226925465082765,17.95621296529908
7469094,Strandvägen,59.19405749366456,17.80500652831908
7469089,Älvestavägen,59.22778648534841,17.84016171043848
7469088,Kvarnhagsvägen,59.23239539675792,17.842871715812308
7469091,Vretarna,59.20992382008392,17.82419745266033
7469090,Tunaholm,59.21563134045692,17.829613302507024
7469101,Broängsvägen,59.19113642711752,17.815668891975935
7469100,Ekshäradsgatan,59.23440261226896,18.093775085239127
7469103,Högbrinksvägen,59.19757135993912,17.823416157524708
7469102,Gröndalsvägen,59.19861718110713,17.830077120619784
7469097,Visättra,59.21780231105479,17.95674247139196
7469096,Södertörns högskola,59.220452555488706,17.943596652119847
7469099,Björnkulla,59.21009229131338,17.940724966144003
7469098,Mangårdsvägen,59.21317806085787,17.94583875020242
7469138,Västerbröta,59.11369133932918,17.860827879617442
7469139,Österbröta,59.11072202747376,17.86630719614075
7469136,Iselsta,59.13462499386999,17.84244328541451
7469137,Uringe skola,59.124335093065895,17.84812057052036
7469142,Västerby skola,59.08523952002525,17.9015229201098
7469143,Mattebovägen,59.08921440288628,17.72834085650376
7469140,Haga,59.106827699584244,17.87628649531363
7469141,Ljungängen,59.09788778166712,17.88447438513367
7469146,Dalkarlsvägen,59.248071414815804,18.00517621138073
7469147,Ågestavägen,59.25127977548507,18.009801163922702
7469144,Centralvägen,59.23323091091356,17.9964753210846
7469145,Ängsnäsvägen,59.23269073907869,17.99121879919072
7469150,Skrattmåsvägen,59.25080852258805,18.05258537281343
7469151,Vildandsvägen,59.24877223631802,18.056097950490408
7469148,Bäckdalsvägen,59.25389542226061,18.012302090031227
7469149,Rågsvedsvägen,59.256261276031296,18.017347396467716
7469123,Enbacken,59.11639043451687,17.741911749922146
7469122,Snäckstavik,59.119820655105976,17.75031338671956
7469121,Bergavägen,59.12646622351668,17.76696975915688
7469120,Tyskbotten,59.12958067445658,17.770624165977953
7469127,Kaggenäs,59.080389152240826,17.728248453181067
7469126,Näs,59.098938114678944,17.728396376152475
7469125,Eldtomta,59.1061935732196,17.732014688464577
7469124,Olberga,59.11162957354709,17.74143373733599
7469131,Hörningsnäs,59.062340325171824,17.696519656770857
7469130,Häradsgränsen,59.068064892204724,17.706634288462023
7469129,Långudden,59.07090026993636,17.725067192833055
7469128,Ulvsvik,59.07395304944663,17.727504886782235
7469135,Rosenhill,59.14012181456227,17.83202268080113
7469134,Karlberg,59.09550556743293,17.729774920446086
7469133,Skanssundet,59.05213028581341,17.69348368827719
7469132,Sandviksbadet,59.05706821174086,17.693527978021535
7469168,Högmoravägen,59.23623312050052,18.035415726295014
7469169,Hammardalsslingan,59.23040882223728,18.049824348360488
7469170,Svartviksvägen,59.22861922821812,18.070697424316705
7469171,Åkantsvägen,59.228604564060575,18.076688788892987
7469172,Henningsberg,59.228332608189596,18.080945920685245
7469173,Rödmossevägen,59.22812266530864,18.08729215991933
7469174,Värmlandsbacken,59.24705567707999,18.07788088614626
7469175,Sunnemobacken,59.247763900779766,18.084624988949823
7469176,Farstavägen,59.24717636965722,18.090476210948403
7469177,Lysviksgatan,59.247747968709845,18.0942311175898
7469178,Visättra sportcenter,59.21678769517678,17.96161778849027
7469179,Kästadalsvägen,59.22766413240862,17.936426522730258
7469180,Lignagatan,59.315934019751246,18.037769407690995
7469181,Edvard Swartz plan,59.30134439734182,17.96949433367712
7469182,Storsvängen (på Hägerstensväge,59.30058500780854,17.964389440041902
7469183,Bägarvägen,59.2475350844387,17.850856970297553
7469153,Snösätravägen,59.25367183262881,18.048495506041423
7469152,Havsörnstorget,59.24665122482739,18.06086672896504
7469155,Farstanäsvägen,59.24264466643075,18.076956345300644
7469154,Kristinehamnsgatan,59.238667708499754,18.093289637760225
7469157,Loftvägen,59.22348379780403,18.142710592069772
7469156,Björkallén,59.233312737887765,18.120356184372472
7469159,Vallhornsvägen,59.2160607143135,18.152484647357674
7469158,Studievägen,59.22212863856361,18.148153782696777
7469161,Vallstigen,59.218487010277116,18.14341993459528
7469160,Vretskolan,59.217316921796744,18.146562869049564
7469163,Flottsbro,59.229328607114425,17.886858499543163
7469162,Boforsgatan,59.23679307933352,18.093164083965693
7469165,Brovaktarvägen,59.26232252137217,17.962775209557766
7469167,Bryggarvägen,59.199170848682336,17.84463909496006
7469166,Månskärsvägen,59.26616122136779,17.911502972132645
7469214,Klosterledsg./Arnöv.,58.452271141517954,14.903388931197401
7469212,Åvägen,59.202129874993815,17.840893979479453
7469211,Nytorp,59.2009407130308,17.722379664524652
7469210,Ängstäppevägen,59.200843172664854,17.728378542316495
7469209,Norrgärdesvägen,59.20034796221571,17.733322173476648
7469208,Irisdalsvägen,59.19911871414323,17.739309488933795
7469207,Skäcklinge,59.18186427558402,17.827021881543033
7469206,Skäcklinge gårdsväg,59.183735371218596,17.831419158403765
7469205,Lövholmenvägen,59.18672352163434,17.837300570631054
7469204,Toppvägen,59.18892009315649,17.832916000120203
7469203,Aftonvägen,59.207210792292564,17.911479037869114
7469202,Ottevägen,59.208547818526995,17.918180254041026
7469201,Kvarnbergsskolan,59.242066120831616,17.99812880564187
7469200,Bergaholmsvägen,59.2170689662873,17.76027279903092
7469198,Lindhov,59.224437491682856,17.78425545505176
7469199,Skogvaktarstigen,59.20711500652473,17.76359088043439
7469196,Norsborgsvägen,59.241795936724984,17.785331016046044
7469197,Fiskarhagen,59.2365349493458,17.781731642069452
7469194,Sankt Albans väg,59.24343102375224,17.815152565178714
7469195,Sjösavägen,59.26805457898182,18.03717946227376
7469192,Flemingsberg Hälsovägen,59.22099668642229,17.94872808496226
7469193,Skarpbrunnavägen,59.24381414155983,17.808356779734165
7469190,Tomtbergavägen,59.24992557000486,17.831786044474484
7469191,Kilabergsvägen,59.305930500909604,18.01087781308855
7469188,Garagevägen,59.29315867989849,18.095331268810597
7469189,Kvarnängsvägen,59.219543974183374,17.95350648843688
7469186,Pyramidbacken,59.26414830396277,17.904924473062792
7469187,Tegelgränd,58.45235854922335,14.908165532944917
7469184,Idholmsvägen,59.27369125145187,17.898371479226576
7469185,Bläcksvampsvägen,59.224107410535986,17.995942994435808
7469244,Trågstigen,59.22829194571617,17.92548032024148
7469241,Hagvreten,59.212994406100464,18.08249956921442
7469240,Kvarnlyckevägen,59.25224643934945,17.955774032533274
7469243,Kavlevägen,59.22813461867498,17.93126981279152
7469242,Gesällbacken,59.30027246010968,17.944687521643516
7469237,Ekspinnarvägen,59.24448088414949,18.027820641061744
7469236,Balettvägen,59.22714142170417,18.157012720227556
7469239,Truckvägen,59.19886823627732,18.124695016132577
7469238,Myrängens vändplan,59.24688505515736,18.031640998864578
7469233,Solgård,59.227628896692295,17.97388269652161
7469232,Storvretsvägen,59.2135852184525,18.15480172976452
7469235,Odonbacken,59.22945223183664,18.154368175338636
7469234,Mariedalsvägen,59.23028693586023,17.97818650421623
7469228,Kärsbyvägen,59.24449553128086,17.805504590675838
7469229,Lindvreten,59.26251664433131,17.897510789393493
7469230,Apoteksbolaget,59.26136472531715,17.903806227134552
7469231,Mogårdsvägen,59.26324575005806,17.892925384313266
7469224,Svanholmsvägen,59.26971201807574,17.887812939305583
7469225,Mogårdsgången,59.26613186674405,17.887647082942543
7469226,Högdalens industri,59.25975922047335,18.052718702204235
7469227,Storforsplan,59.24032887195386,18.092787442826218
7469220,Toyota,59.26750554801215,17.925495618320475
7469221,Diagonalvägen,59.264667085279825,17.92168867451321
7469222,Dialoggatan,59.264167850680955,17.912607670828624
7469223,Vreta gårdsväg,59.211875716209065,17.823979950648514
7469218,Toredalsvägen,59.186320439115214,17.732252242619413
7469219,Adler Salvius väg,59.21497809073969,17.895337089028803
7469275,Plåtslagarvägen,59.201351874489255,17.919486517067053
7469274,Mekanikervägen,59.20660013825903,17.92364542268301
7469273,Dymmelkärrsvägen,59.22152290834795,17.91377958106692
7469272,Riddarvägen,59.22608577175742,17.919789847856133
7469279,Krokvägen,59.199870620517316,17.90672076863436
7469278,Flottiljvägen,59.20318630511598,17.899903927650904
7469277,Formarvägen,59.20035572199749,17.916133816317426
7469276,Smedvägen,59.20045815265123,17.91092330719385
7469267,Elgentorpsvägen,59.20859165842897,17.89713561806207
7469265,Karlskronaviksvägen,59.185617390804914,17.72332389927689
7469264,Tallsättravägen,59.19141273890625,17.724891141266916
7469271,Rågvägen,59.24747931249534,17.823945312356354
7469270,Blickavägen,59.21561373563586,17.912154205452538
7469269,Petunievägen,59.21641750159337,17.906318928456155
7469268,Posten,58.441497720009245,14.882038252120275
7469258,Fornminnesvägen,59.28191202114749,17.92860222075725
7469259,Lilla Dalens begravningsplats,59.218444915562586,17.847802762557375
7469257,Vårdkasevägen,59.27995494677315,17.923058355360375
7469262,Gösta Frohms väg,59.18403594950658,17.91470763501892
7469263,Skolberga,59.19571617714117,17.726550218894722
7469260,Alfred Nobels allé,59.21188950552257,17.91644286801208
7469261,Hangarvägen,59.186642107383705,17.916793114462916
7469305,Torp,59.01390556817321,17.819338956408043
7469304,Nyvreten,59.03793624613519,17.827904936920596
7469307,Väfsla,59.0019465196118,17.80123587750614
7469306,Tegelvreten,59.102190628715356,17.800843102304125
7469309,Ristomta,58.991566109863655,17.811701372811328
7469308,Porthus,58.99646407354345,17.798639016690945
7469311,Berga,58.987366459132154,17.827688912394898
7469310,Söder Enby,58.988448418007636,17.815869557693805
7469297,Stutbyvägen,59.088055218733295,17.78807034850926
7469296,Kagghamra,59.10567503800647,17.79964896560103
7469299,Frölunda,59.06403522380363,17.804453155310583
7469298,Fitunavägen,59.07087778887085,17.788056637393144
7469301,Aska,59.05003094704394,17.80595783328343
7469300,Åvik,59.057105184796235,17.805480026693797
7469303,Norr Enby,59.044616795734974,17.819845616666996
7469302,Fullbro,59.044418195459215,17.80948285769975
7469289,Kvarnängen,58.923360072019044,17.92140054544144
7469290,Malmsjö allé,59.16494168653786,17.770588359418955
7469291,Bremoravägen,59.165042984210395,17.78697979649092
7469292,Lövlund,59.134612436334585,17.830613930827628
7469293,Åvinge kvarn,59.12628918480397,17.81786031980079
7469294,Dalsta,59.11804812014467,17.80377308650916
7469295,Byrstavägen,59.11444554217733,17.805641332785395
7469280,Söderby gårds väg,59.21786069903852,17.779198486208923
7469281,Gymnasiet,59.192028171159144,17.746941799484045
7469284,Ladvik,59.24625048543539,17.66974228627046
7469285,Högantorp,59.25783024855462,17.60681315318617
7469286,Hasselbacken,59.232143834430005,17.429991720815966
7469287,Sandtorp,59.18483030256807,17.349435953990902
7470959,Isolatorvägen,59.6377860106599,16.554431195961616
7470958,Örjansgränd,59.59020672561674,16.499627106575172
7470957,Hemdalsvägen,59.61515187972909,16.57228216325537
7470956,Adelsögatan,59.619008757124426,16.5849855479373
7470955,Bjurhovda,59.62464925481198,16.621374371484226
7470954,Hemse norra,57.243291803101386,18.38191055136421
7470953,Kovik,57.40835991713189,18.166351149979665
7470952,Korpen,57.64065258756455,18.31055484889158
7470951,Kornetten,57.701060684880545,18.401906254001307
7470950,Korgmakargatan,57.615093904964844,18.31298022551671
7470949,Konstskolan,57.64575916651952,18.31576501158863
7470948,Kometen,57.64721419145805,18.310336847484535
7470947,Kohlenskvarn,57.67336850563452,18.341144987954518
7470946,Klintebys,57.38277447278965,18.241047101598614
7470945,Kauparve,57.820290888082795,18.88615105896329
7470944,Kassle,57.850242454387356,18.701667396981343
7470972,Torsvik Kraftvärmeverket,57.694954736408924,14.14531652704344
7470973,Torsvik Gammavägen,57.69220858648622,14.15094288877372
7470970,Huskvarna Harrvägen,57.8160132599834,14.26949392562492
7470971,Norrahammar Tallhöjden,57.71517210622318,14.123733068031365
7470968,Skälby,59.59483683260897,16.454378388282525
7470969,S:t Olof Skolan,55.63854270846476,14.129077620249655
7470966,Viksäng centrum,59.60836226414814,16.57591820731365
7470967,Hamregatan,59.59310390408941,16.61292687561359
7470964,Pettersberg centrum,59.61652269104728,16.51696504552241
7470965,Lillhamra,59.600615708289624,16.616099633944337
7470962,Finnslätten norra,59.641991894915954,16.582929227656468
7470963,Jävre N Hedvägen,65.15268365191736,21.5053244923774
7470960,Tunbytorp norra,59.654088280522096,16.566748889640944
7470961,Returvägen,59.65590239458994,16.575836306760973
7470925,Åby,57.67740301479908,18.460193558491383
7470924,Ytlings,57.72904536342855,18.748735026898363
7470927,ÖB,57.63040663952508,18.28807992746326
7470926,Åkericentralen,57.64383181671131,18.32685573117906
7470921,Vårdcentralen Visborg,57.611741512504764,18.282555724599778
7470920,Volontärgatan,57.6322270822499,18.30963963641951
7470923,Väte affär,57.443235556209125,18.367515167979672
7470922,Värsände,57.367387473243475,18.202654057648672
7470917,Vis,57.70309852038112,18.412019318303184
7470916,Vindelbosgatan,57.617056966495284,18.286332308900853
7470919,Visborgskyrkan,57.62416993876094,18.285477842303063
7470918,Kungsladugården,57.617627012149946,18.27097071096164
7470913,Martille,57.56454002187244,18.20570249527779
7470912,Martallsgatan,57.62738997559876,18.318013726358885
7470915,Myrstigen,57.61796819949776,18.29024458368866
7470914,Muramaris,57.680111869429346,18.34530506656623
7470940,Jysk,57.63753264042054,18.32742392496706
7470941,Kajlunds,57.77647812907195,18.828940316911538
7470942,Kakdala,57.70008510532363,18.392960686261837
7470943,Kanalen,57.74277483395773,18.41336237328261
7470936,ICA Visborg,57.61771770518222,18.28470337678621
7470937,Industrigatan,57.63200127916857,18.311968589896008
7470938,Ingvards,57.56180260724175,18.305136925326842
7470939,Isome,57.43629283963327,18.364364671427445
7470932,Hulte,57.601255355072844,18.4780160525879
7470933,Häftings,57.84943441758447,18.673969176076948
7470934,Högbro,57.496413334588475,18.47585413176557
7470935,ICA Maxi,57.623575722099766,18.32461480562447
7470929,Österby,57.633017909786126,18.34653743962061
7470930,Östercentrum,57.638346902553906,18.29996119841217
7470931,Övide,57.51231665933096,18.212286200646705
7470891,Trädgårdsgatan 1,57.620834934225144,18.31337579985784
7470890,Tofta södra,57.4797554950337,18.125997637897786
7470889,Kvarne,57.49501186057577,18.196466148586513
7470895,Vall kvarn,57.529136852691295,18.335130179492953
7470894,Kyrkebols,57.77033894798383,18.893496622027925
7470893,Trädgårdsgatan 2,57.61831991800053,18.31336989040162
7470892,Kvie,57.6770388663422,18.489796218062622
7470883,Tipps,57.454329795854235,18.205475044925336
7470882,Tibbles,57.6378830089795,18.46378997483653
7470881,Terra Nova vägen,57.60657849784702,18.302085193017483
7470880,Kullshage,57.8539615808215,18.750836815023696
7470887,Kustparken,57.86391090060593,19.049021273759994
7470886,Tjelvarvägen,57.637685745543145,18.31068546005176
7470884,Tjauls Nyhamn,57.762944497226044,18.428429904362698
7470906,Långhulte,57.5979070736941,18.491456875608947
7470907,Lännaplan,57.63001257811211,18.29441628514392
7470904,Linhatte,57.53668576235644,18.33047535841604
7470905,Lye,57.29476108209924,18.508349696159346
7470910,Lönnvägen,57.6305195869191,18.314210900291858
7470911,Malms,57.76723783675403,18.928370465877336
7470908,Lännavägen,57.62855824845333,18.299842556480442
7470909,Länsstyrelsen,57.61559427137532,18.283052256830885
7470898,Varbos,57.419181245614006,18.244296672576287
7470899,Langsväg,57.61376738174439,18.28460169962119
7470896,Langs hage,57.60804788711888,18.284480007962372
7470902,Lickershamnsvägen,57.81088305678932,18.527842794156044
7470903,Lillfole,57.63751041403365,18.52356020884813
7470901,Lere,57.614909852141466,18.406537536041913
7470857,Staplebacke,57.81408487867553,18.784953926200256
7470856,Sorby,57.79149678675677,18.480628310543455
7470859,Stelor,57.44751301670966,18.14134932144582
7470858,Starrlause,57.28768487317745,18.485980950598268
7470861,Stenkyrka Garde,57.81441895055315,18.536357145361176
7470860,Stenhuse,57.42521479498516,18.22954517677035
7470863,Stora Domerarve,57.172294049501005,18.255563819578175
7470862,Stenstugu,57.375250032582876,18.38871389655612
7470849,Skräddargatan,57.609787482165565,18.30424664188453
7470848,Skrubbs,57.61818606326465,18.33361621744354
7470851,Snoder,57.239077078452794,18.21214615607142
7470850,Lövesik,57.90235616112433,12.179450843621872
7470853,Solbacken,57.48919328733004,18.141708392173722
7470852,Snäckvägen,57.66694096699572,18.334661732174883
7470855,Solbjärga,57.353635461594564,18.256732803249182
7470872,Krakfot,57.50962415308576,18.68747003128101
7470873,Söderhemsgatan,57.61890892435552,18.292652450412742
7470874,Tallebo,57.703628629504664,18.379974101172806
7470875,Kroks,57.4959772122531,18.149816008633028
7470877,Tallundsgatan,57.628353271273966,18.287437466145374
7470878,Uppsala Kungsängsgatan,59.848560930283604,17.65875831147104
7470864,Stora Ihre,57.776061254174564,18.87985930480737
7470866,Strandgärdet,57.646911776401666,18.30155405316668
7470867,Strandvägen,57.43487702969337,18.146073633508195
7470868,Stäven,57.61925206953869,18.29803284930747
7470869,Suderbys 1,57.577292512707146,18.210555053478405
7470870,Suderbys 2,57.62915369873345,18.573342567812496
7470871,Svajdestugan,57.598976331821994,18.35085447951605
7471078,Getberget,64.75145855177014,20.98261655628279
7471079,Morön,64.7494219837985,20.99454341937005
7471076,Slite södra,57.698021101201874,18.79788173409932
7471074,Boden Norra Svartbyn,65.80996548338368,21.76007086562827
7471075,Fagernäs skola,65.82324838214919,21.7268016444053
7471072,Jämtöavan,65.82657035358727,22.52238148976266
7471084,Hamnen,64.6787582111534,21.24236067344195
7471085,Kallholmen,64.68175644214651,21.23813108503767
7471082,Norra tuvan,64.73535307437636,21.04413736956015
7471083,Nyåkersbacken,64.72809690563733,21.06410709544875
7471080,Östra leden,64.7460259494181,21.013385894735283
7471081,Hedensbyns industriområde,64.74209034574105,21.025025412649747
7471092,Bergsbydammen,64.72567139680824,21.072618510741666
7471089,Scandic Hotel,64.75126708118177,20.96312336444535
7471045,Ganthem vägskäl,57.51345432262064,18.556558931505982
7471046,Glose,57.411312303207204,18.770305116961186
7471047,Lunda,57.46615311414029,18.358116217374736
7471042,Sandäskes,57.41217476898647,18.26876596098652
7471043,Björkhage,57.56088720644159,18.51500557051645
7471052,Alskog,57.3314703234614,18.62848378099665
7471053,Ala affär,57.42862007367095,18.63096533257839
7471054,Ljungby,57.433220175346065,18.60600107480404
7471055,Etelhem,57.33698252801291,18.495835029116343
7471048,Lojsta,57.30931054814327,18.38010316676099
7471049,Asa,57.293121185178435,18.385443050998816
7471050,Snögrinde,57.37584416699334,18.241751668909874
7471061,Martebo vägskäl,57.70465508648466,18.510785664057902
7471063,Allkvia,57.6148843785303,18.43382052162125
7471062,Krampbro,57.633989002065185,18.541050524502726
7471056,Karlstad Skutberget,59.374080543914744,13.393401745758162
7471059,Kvarnåkershamn,57.22611995048604,18.213289551363562
7471058,Hellvi skola,57.766941362680036,18.911195963684705
7471069,Ekeby,57.594868735153476,18.513852330519885
7471068,Vikaholm,56.83728076430151,14.79876435996506
7471071,Bjärges,57.447976969119004,18.4893185011476
7471070,Hammars,57.706150251964566,18.527360201006708
7471064,Alva,57.208895039872075,18.361683914252996
7471067,Furumovägen,56.91483745818485,14.85734161836421
7471066,Västerhejde,57.58770296819585,18.239173840156532
7471011,Mjellby Konstmuseum,56.682710764702264,12.781123616565273
7471008,Kaserngatan,59.609014517323885,16.574905753335738
7471009,Mekanikergatan Borlänge,60.47949626218294,15.416322532999567
7471014,Stora Homa,57.55318784841838,18.202783444137868
7471015,Skogs,57.27508181507363,18.304577359183458
7471018,Marmorbrottet,57.638136707722026,18.39530139109724
7471019,Lixarve,57.52609450691269,18.17245288713341
7471016,Dyple,57.531825719042764,18.178168245138696
7471017,Tofta Knallen,57.51490973160375,18.160544795633975
7471022,Västers,57.67407759048523,18.744277428080608
7471023,Mojner,57.690904131714184,18.796808181726906
7471020,Vatlings,57.63861138731774,18.505719343148098
7471021,Björkhaga,57.40484373512188,18.176609289304345
7471027,Uppsala Ultuna Park,59.811643370637256,17.659346935688653
7471026,Burge,57.783549885417045,18.456546291113405
7471025,Salthamn,57.730017325708076,18.404719677602294
7471024,Klintegårda,57.71788789925482,18.40922167061963
7471031,Takstens,57.80935331945326,18.83674173609784
7471030,Myrvälder,57.72515403859776,18.57479438031054
7471029,Ekes,57.685259691515476,18.500299685529956
7471028,Broväg,57.65675302201696,18.402996205883575
7471034,Bräntings,57.827544194388516,18.992532005142664
7471033,Valle,57.80611544507639,18.96202746666703
7471032,Hägvide,57.783275429752536,18.818912450410657
7471039,Anglarve,57.55021155472371,18.32339095452583
7470976,Ansarve,57.52881831892675,18.227734305740032
7470977,Rosenlundsskolan skoltur,57.77837303484464,14.213115891998521
7470978,Sjukhuset Västerås Huvudentrén,59.6177887818952,16.580297512731388
7470979,Lunds,57.58396615609156,18.221865926798934
7470980,Blomstergatan,59.62989151306105,16.555159504659674
7470981,Skallbergsgatan,59.62525984481948,16.547223374442748
7470982,Vegagatan,59.625262320118665,16.5404005613401
7470983,Isums,57.494150681216645,18.368412018799948
7470984,Hökvägen,59.622009337966404,16.537813333640273
7470986,Hagagatan,59.62145122275986,16.572655944031816
7470988,Linde,57.28210126991149,18.384008342670754
7470989,Hagalidsvägen,59.62750639405164,16.571801422791186
7470990,Tråddragargatan,59.622546414138114,16.589355768528026
7470991,Tillberga,59.68119248241008,16.62281820384941
7470993,Alvesta,59.67807818020545,16.59633082038475
7470992,Bygelvägen,59.6875742236753,16.617114420876085
7470995,Rundhällsvägen,59.66937017455945,16.584449644121097
7470994,Isblocksvägen,59.67453570195784,16.5852792897194
7470997,Hagaberg,59.69378423548309,16.43766117959191
7470996,Enhagen,59.56109592770063,16.527859874681027
7470998,Ekbacken,59.5679997230554,16.52280629905064
7471001,Tjängdarve,57.244407768332906,18.40969438912869
7471003,Ungesmiss,57.79469091000386,18.496509933838244
7471002,Tors,57.660665421107815,18.418024880755535
7471005,Viklau vägskäl,57.475001315303224,18.498470751782943
7471004,Vall Levide,57.518656071347515,18.36929618046264
7471007,Lögarängen,59.598012484230466,16.528579943196732
7471006,Willys/Posten,57.63477187852302,18.326227623381
7470716,Tallträsk,64.48720437869112,20.185911916583052
7470717,Gorkuträsk,64.46456578836752,20.098029392038786
7470718,Spölträsk,64.61813860903519,19.778264938952425
7470719,Ljusträsk,64.60788873432728,19.822381081452033
7470712,Storliden,64.4445698238964,20.310128749738475
7470713,Rotsjön,64.47780967429293,20.25808678168357
7470714,Forsliden,64.46783014618529,20.228183176134873
7470715,Långträsk,64.52487465532008,20.104280509109355
7470709,Buters,57.5415372029412,18.6281409948888
7470711,St Blåbärsliden,64.64817703601766,20.298584467617594
7470704,Bjuröklubb,64.46577484137723,21.590721484543298
7470705,Brännvattnet,64.57365355851508,20.298070761569647
7470706,Bjurforskammen,64.39993012022204,20.404467673964966
7470701,Lappvik,64.45054682790159,21.41834804374352
7470700,Bäckån,64.52181823289526,21.390326000952086
7470703,Brattås,64.45313765290264,21.516212473195008
7470702,Bjurön,64.44026557258097,21.49992341051003
7470697,Gammelbyn (Lövånger),64.34371529569387,21.343135860865804
7470696,Västanbyn,64.33378769138552,21.239245569208155
7470699,Nolbyn,64.40128182312111,21.37067518060855
7470698,Blacke,64.37964634796808,21.390950529023925
7470693,Bissjön,64.41720137788062,21.226850058200824
7470692,Västra Näset,64.382183776883,21.035746951071957
7470695,Avan,64.3265936087748,21.313909262387632
7470694,Hökmark,64.42745916388277,21.270112429242072
7470689,Missjön,64.44516740772318,21.276732638096263
7470688,Tannbäck,64.52753458868385,18.744866313013972
7470690,Hötjärn,64.36883093157688,21.161491722420333
7470686,Bjurträsk,64.56722599445362,17.922579785128374
7470687,Svartliden,64.94874050271912,18.71067453677126
7470684,Paulund,64.88213277201089,17.930490256545745
7470685,Fäbodliden,64.59862968944297,17.972323563273957
7470682,Bjurås,65.10590570927569,18.12872450733912
7470683,Hjalmarlund,64.88436050994474,18.003874531842424
7470680,Falåström,64.84698048555641,18.575259243751912
7470681,Brännfors,64.95316536364554,18.801437402744252
7470678,Karlsborg,64.85215590898012,18.676720804042215
7470676,Rotenträsk,64.763120703789,18.859864773714815
7470677,Lillå,64.78267091216567,18.971770317105143
7470674,Tannfors,64.52978530068548,18.723321354073622
7470675,Bågaträskheden,64.74587100050573,18.85001391940051
7470672,Tväråberg,64.84136222924764,18.40781822009922
7470673,Sidberg,64.87928096720722,18.361823293237713
7470671,Falträsk,64.79649428806874,18.54504439054349
7470670,Nyliden,64.23925249868967,19.01750292841539
7470669,Skurträsk,64.20827984415773,19.056636137018916
7470667,Gravsjö,64.46422420280956,18.72203433101226
7470666,Åliden,64.43660184815937,18.506488180722474
7470665,Vänjaurbäcksliden,64.40693423775137,18.52650251049295
7470664,Ytterfors,64.45380732488168,18.31354937970294
7470663,Ledningsvall,64.44531519528594,17.996376256540124
7470662,Knäppingen,64.55299938718174,18.401272601720155
7470660,Svanamyran,64.56278472445233,18.13622572688317
7470659,Mårdberg,64.54460483414546,18.201032059306044
7470658,Ledåberg,64.5314574925083,18.2300830663963
7470657,Myrträsk,64.48810145406527,17.94954511879519
7470656,Kroksjö,64.50970200164323,17.985559458392423
7470648,Sikseleberg,64.71686205523555,19.1386200697201
7470649,Vargträsk,64.21184990206544,18.63661870637172
7470650,Flakaträsk,64.25087883697657,18.519393671706666
7470651,Stenkulla,64.71336481302103,18.34632437520862
7470652,Norrkulla,64.72021007563876,18.32282675437448
7470653,Granfors,64.6993871106315,18.427343168540336
7470654,Joelstorp,64.64715360865146,18.566155457126616
7470640,Bunn,57.851881976139786,18.98221232480233
7470641,Buntmakargatan,57.61143234266864,18.307372189528493
7470643,Kattisavan S,64.74780406244422,18.173816113620283
7470646,Forslund,64.73622430148595,19.127284309001485
7470647,Ängsbäck,64.72950878809232,19.132047893660374
7470632,Vilhelmina södra vsk,64.61358028942587,16.68923694254501
7470635,Umeå Ersmark väg 364,63.871880668822726,20.30296770318564
7470639,Norrbyn,64.62614027462868,20.488728947175357
7470638,Brissundvägen,57.716954532479214,18.389011237454554
7470624,Östersund ICA Maxi,63.19181416862283,14.652982345295715
7470627,Bränta,61.816050139131434,15.988014115463722
7470626,Skyte,61.88782704052852,15.681543163950908
7470629,Sörviken södra,63.06702257318941,14.791153466183852
7470628,Minne södra,62.20834328977069,15.158235993134271
7470631,Dorotea Hotell,64.2586221888442,16.426365357389216
7470618,Östersund Tallbacksvägen,63.18874861617303,14.6445424430311
7470619,Östersund Pampasvägen,63.188315420117995,14.648632085498448
7470622,Krångede Affären,63.150526537477326,16.15837850450406
7470623,Östersund Vilan,63.1814413947112,14.647397123093816
7470610,Bjännberg östra,63.70291046530043,19.816751369207456
7470609,Bjännberg västra,63.702940461483195,19.784939671965468
7470601,Skärträsk,64.15231159480342,20.114434709824135
7470600,Österland,64.10285528818564,20.114351327117518
7470606,Söråker Ala skola,62.51502963114245,17.498437412729974
7470599,Västerå,64.11041660893986,20.106623749187573
7470598,Björkhammar,64.07853106321235,20.151132911406975
7470597,Åliden,64.05311196443053,20.233710757727795
7470596,Ådala,64.06372771098918,20.1602321464142
7470837,Rosenbys,57.463274816375595,18.226230347200463
7470836,Roma sockersilos,57.50783593410769,18.450034319133476
7470839,Samhall,57.61751597791249,18.317666833785506
7470838,Råby,57.63847315194798,18.478405882542127
7470833,Roes,57.10676019218811,18.321463543013287
7470832,Risungs,57.804247410888394,18.943182615691377
7470835,Roma klosterruin,57.51477729751027,18.445011211425797
7470834,Roma Glasbruk,57.522286618962,18.442030817840383
7470845,Själsö övre,57.69104441990171,18.368882683596876
7470844,Simunde,57.40749171603561,18.371509908822002
7470846,Skarpek,57.772497042116555,18.444253453571122
7470841,Sanda,57.43134331952151,18.21912522003421
7470840,Sanatorievägen,57.6189303705236,18.39008401275349
7470843,Signalgatan övre,57.62135181517216,18.282607166389283
7470842,Sandänden,57.576646157236844,18.50062544878027
7470820,Region Gotland,57.61409115859608,18.280455984517562
7470821,Gardese,57.488460254916866,18.590211316900515
7470823,Gisle,57.04655786000369,18.290690419292403
7470817,Fröjelgården,57.31565359297995,18.175312708725908
7470819,Gannarve,57.347994278399284,18.192716244976555
7470829,Gutevägen,57.62594435939723,18.286603398365482
7470831,Ringome,57.21777505966834,18.36762986018387
7470824,Gottskalk,57.574364045770544,18.301316587800223
7470826,Gråbo centrum,57.61810633874647,18.301469772821143
7470827,Gurpe,57.45512891382038,18.666511905473207
7470807,Etebols,57.750591575964016,18.42199028602038
7470806,Eskes,57.419252767787576,18.259118832419315
7470805,Endreväg 2,57.63353625385153,18.320615415207268
7470804,Endreväg 1,57.63498801279343,18.31083459381049
7470803,Elim kapell,57.79793432561065,18.944148733235917
7470814,Flextronics,57.64426409392362,18.31415409590225
7470812,Fidekyrkväg,57.074195310611344,18.301280023941853
7470811,Farmek,57.63657223020173,18.335480413932654
7470809,Etelhem södra,57.33120934820025,18.505329211673992
7470808,Etelhem norra,57.35130302203301,18.497896599270298
7470798,Privab,57.6328852776083,18.33433636668671
7470799,Rangsarve,57.198505724137966,18.342430160330185
7470796,Svennagård,57.221012250266,12.422618214344173
7470797,Pilhagsvägen,57.61445414155063,18.295360936689043
7470769,Vattholma gångtunnel,60.01590642922023,17.744229576452664
7470768,Othemars,57.74906299571304,18.710539106708744
7470752,Nygård,59.219152808071684,17.283052384322687
7470754,Spånga Sundbyvägen,59.36327801367044,17.90346266344011
7470755,Johannes Petri skola,59.306110606083436,18.23402740126394
7470756,Täby kyrkby trafikplats,59.47580371827035,18.051714055657413
7470757,Ursvik Backstugevägen,59.38465740935161,17.95480563562161
7470758,Finkarby,59.22548954860739,17.30674528434269
7470759,Stockholm Henriksdalsviadukten,59.311439589304335,18.108205346145883
7470760,Johannelund Krossgatan (på Löv,59.369084703037736,17.852784444168766
7470761,Nykvarn Lillhagaskolan,59.17576286154344,17.423224278504495
7470762,Löttingelund,59.47216787249907,18.0971797073313
7470765,Mörby,57.69693042092772,18.50485758298179
7470767,Norsbro,57.25463087117931,18.45651177765576
7470739,Klockträsk,64.94468050072177,20.203661284494363
7470738,Vänträsk,64.96629453628351,20.241174714686164
7470737,Bygdeträskliden,64.4486758999784,20.533895619609
7470736,Andersvattnet,64.39852443104739,20.620617053822155
7470743,Nyträsk,64.99806959259172,20.447306674259817
7470742,Tjärnliden,64.98572618395876,20.51586244517503
7470741,Strycksele,65.06262321973139,20.104269168669717
7470740,Högheden,65.07694936941523,20.208196739013893
7470747,Nykvarn Turingeskolan,59.17296086926082,17.41894689804623
7470746,Sundsvik,59.23510298276066,17.433882003612222
7470745,Jakobsberg Vasavägen,59.41421289490092,17.837926513019926
7470744,Pärlström,65.01184188826063,20.082236754989125
7470751,Nybodahallen (på Södertäljeväg,59.30631164671705,18.02175524826005
7470750,Lilla Stenby Norrängsvägen,59.38412839201167,17.51574342658076
7470749,Norrgården,59.54669458399711,18.483855417362815
7470748,Rövarhamn,59.38266416020455,18.455695466117707
7470722,Lubboträsk,64.5497507600093,19.95124780995131
7470723,Södra Lubboträsk,64.53327250033551,19.959553506758166
7470720,Stavträsk,64.60830030470171,19.880089949670484
7470721,Salberget,64.5725949102927,19.917065667618385
7470726,Lidsträsk,64.73589935414009,19.81195938064108
7470727,Häggnäs,64.6176776174055,20.26889376833171
7470724,Granträsk,64.71603354805278,19.680878208244764
7470725,Gustavsberg,64.70459208904568,19.640460438207548
7470730,Högkälen,64.67274630825412,19.602674985715968
7470731,Brattberg,64.66166829619468,19.559913566159544
7470728,Holmsund,64.64603088995344,19.696987451300235
7470729,Avaberg,64.66991765270649,19.675712531969303
7470734,S Renbergsvattnet,64.56334380516142,20.760109456840134
7470735,Risvattnet,64.4015154987216,20.66887634022528
7470732,Brännfors,64.60220626602447,20.71190138354787
7470733,Forsnäs,64.58338932789736,20.672334415547923
7470409,Sveavägen,57.79037554578055,14.120453224748244
7470408,Visingsö Erstad,58.089209577310726,14.392120106778082
7470411,Huskvarna Vårdcentrum,57.789994367793604,14.272163836057604
7470410,Huskvarna Hörnan,57.79234574175632,14.278740144241548
7470413,Bols,57.15024069631201,18.283921595119335
7470412,Bokbindargatan,57.61256870676571,18.308956661115847
7470415,Skullaryd,57.759020682828385,14.918509816550074
7470414,Huskvarna Majgatan,57.783551464321214,14.265157442492121
7470401,Kåddis,63.84932365760629,20.11070809284064
7470400,Bogen 2,57.61231572364156,18.30358331774982
7470403,Visingsö Kumlaby,58.05477749096505,14.347135396604006
7470405,Visingsö Stigby,58.01840092140402,14.315364872946823
7470404,Visingsö Konsum,58.04549955269555,14.338368742986452
7470407,Visingsö Svensgården,58.0407672744324,14.320563307161638
7470406,Visingsö Näs,58.00026090578526,14.287196758763335
7470424,Anderstorp Lövås industr,57.27039966030094,13.617568803169384
7470427,Gnosjö Lid industriområd,57.343676958479506,13.762892122716163
7470428,Strömsberg,56.402857895128825,15.827918621662478
7470429,Hallagärde,56.410212563997135,15.859463058863607
7470416,Värnamo Lagastigen,57.188682487289725,14.04339957416644
7470417,Värnamo Sörskogsvägen,57.18387941063743,14.007455955916344
7470418,Värnamo Citronvägen,57.18803454285877,14.010992380197033
7470419,Värnamo Söderåsvägen,57.19167496869312,14.0200137883451
7470420,Värnamo Prinsgatan,57.18940638551315,14.029767419924422
7470421,Värnamo Högaloft,57.18485294661866,14.031044580306473
7470422,Värnamo Skålgropsvägen,57.189665626473946,14.0164053068234
7470423,Anderstorp Motorbanan,57.260122121462736,13.606144634285865
7470445,Törsbo,56.60624310889201,16.0376163551572
7470462,Tokabo by,56.61978074529482,16.020253512031413
7470463,Halner,57.661271805839206,18.42778960115253
7470452,Runtorp by,56.609851829869775,15.963803073301733
7470383,Bye,62.5577725364953,17.66139355960864
7470392,Kristinagatan 57,58.58557895145029,16.194162499299978
7470393,Gävle Gävle Strand,60.67896452238551,17.16191600503204
7470391,Graversfors 2,58.69391880335909,16.157234621832707
7470388,Lögdövägen,62.539115361348166,17.36668717231996
7470386,Frötuna vägskäl,62.60975371818287,17.352649145607817
7470384,Torsboda Rigstavägen,62.52856292733358,17.48655847390204
7470385,Edsåker,62.598099267665816,17.374980299837382
7470529,Vilboksskolan,56.28150738114652,14.51005590065475
7470531,Hallebo,58.72670528195898,12.029662301383661
7470532,Fagerhult,58.75239061717237,12.032804608996042
7470533,Råggärd,58.763428123589044,12.032575211773311
7470534,Ånnerud,58.70814980065819,12.02573306222826
7470535,Högsäter skola,58.65104785262607,12.05110776727811
7470536,Starlanda,58.77061337156566,11.996725068316877
7470537,Nordängen,58.77406698490615,11.974699888516549
7470538,Ringelanda,58.781573466378084,11.974789189181426
7470539,Nordsäter,58.775434402224086,11.985035389431342
7470540,Eloverud,58.759660614626064,11.958697338256657
7470542,Erstaviksbadet,59.27314249701305,18.28410534533998
7470545,Garpenberg Kaspersbovägen,60.318190580310414,16.203577063854055
7470547,Falun Hundlokan,60.61718617940252,15.638010978926213
7470549,Dalstuga,61.061120921336766,15.691398619547419
7470548,Vikarbyn pizzerian,60.91076573525386,15.01444190244725
7470551,Tjällassen,61.02767982797952,15.488043754100673
7470550,Bingsjö,61.02302662648403,15.64825796101662
7470552,Born,60.958771849293235,15.267051788089718
7470555,Falkenberg Hamngatan,56.894050410207235,12.487891886585771
7470554,Halmstad Oceanvägen,56.65108090307328,12.859669550377928
7470557,Falkenberg Servicevägen,56.9057529839241,12.461723381658555
7470556,Falkenberg Sjöviksvägen,56.90502951358508,12.464908739478672
7470559,Falkenberg Murarelyckan,56.90198730997435,12.44530882015671
7470558,Falkenberg Glykolvägen,56.90612217877133,12.458733877500965
7470562,Träslövsläge Fiskebåtsvä,57.05517783516226,12.293927857664318
7470560,Falkenberg Fiskaregatan,56.896361287691235,12.490314044412894
7470561,Träslövsläge Relingvägen,57.06262349370575,12.290254740401338
7470567,Lapserum vsk,57.93443998975927,16.38135683649496
7470565,Bjurdamm,58.11709850146212,13.037091476274336
7470571,Pershyttans industriomr,59.50584872587284,15.024461419971683
7470569,Kusmark hpl 1,64.86404100981107,20.83744791515143
7470575,Västanbergavägen,59.54745313856029,18.0688632216232
7470572,Billingevägen västra,59.32189805099508,15.130891845597766
7470573,Kartorpsvägen,58.92159405891645,15.050483644188805
7470579,August Strindbergs gata,59.74820655680064,18.67284359238039
7470578,Torvalla,59.73211703580377,18.52437715635865
7470577,Blåmesvägen,59.54805078664837,18.053462468215592
7470576,Koltrastvägen,59.548408204352384,18.062436046640425
7470583,Pärlängsberget,59.105710082687246,17.547630230946407
7470581,Frihamra vägskäl,59.72680721011697,18.495259732856056
7470580,Solbackavägen,59.77205579161251,18.73902319844911
7470585,Mörby industriområde,59.17696300928294,17.480881861452346
7470584,Morabergs trafikplats,59.20134167289263,17.66130805499766
7470468,Hejdegård,57.39172893916618,18.38238666944192
7470464,Halsjärnsgatan,57.623757480306274,18.283608058153142
7470486,Hemse Kupan,57.23629631642499,18.372575851385808
7470483,Östervik,64.06516556232575,20.23599663470561
7470482,Kristinelund,56.58581865954928,16.11360749395351
7470499,Hemse kyrka,57.23277650115339,18.372496880551427
7470511,Karlsro Rockneby,56.816693734814315,16.356741363572304
7470527,Mobilia köpcenter,58.36594600065552,15.293503060017835
7470526,Norrköping Importgatan 30,58.58829781083003,16.22328495605134
7470523,Tombo,56.81616742918992,16.15984833603619
7470522,Bäckstorp,56.81803627578765,16.126198767889743
7470521,Flakö,56.84349069093333,16.412979495871966
7470171,Företagsgatan 64,57.70193392749866,12.84313638711547
7470174,Ödegärdsgatan 1,57.69668354480132,12.825007746981562
7470162,Blåvingegatan,57.75786695331056,12.949416084536937
7470163,Barnhemsgatan 36,57.75593226196384,12.944896819237131
7470160,Äspereds kyrka,57.75541041099681,13.182525671319512
7470166,Björkvägen,57.71310894486833,12.789864624281602
7470167,Kullastigen,57.71184854070474,12.787871230771282
7470164,Atterdags,57.63332748040796,18.290288909491395
7470165,Banna,57.77435600820473,18.778148787714628
7470155,Falghultsvägen,57.43505904188123,12.755405589772858
7470154,Ardre,57.35946978758983,18.685326916606044
7470153,Dvärstorp,58.16023389195469,13.79182097476445
7470152,Appellen,57.62336136732045,18.280902316114847
7470159,Sturegatan,57.72424776106067,12.944528611613423
7470158,Atlasgatan,57.64787544800196,18.313230546872823
7470157,Arla,57.634920778135964,18.334963584293014
7470156,Erikslund,57.25060943601976,13.060440941906263
7470146,Västra Lainejaur,65.24314650478067,18.868798601908992
7470151,Svedjan,64.96513610602572,17.079195821373606
7470200,Hålkedalen,58.930649538760974,11.18781602625418
7470202,Bingebyplan,57.639729035110996,18.311831224581685
7470203,Birkagatan,57.637954551706514,18.306181707437183
7470204,Björklunda,57.05012025116638,18.29224706958999
7470205,Kvarngatan,58.18924054483999,12.721204390726935
7470193,Vik,58.459258070218894,11.330596588152064
7470194,Rödhällebacken,58.7191425165073,11.294766601526916
7470196,Råröd,58.61042148260562,11.315235115137172
7470197,Ånneröd västra,58.96006781427253,11.174771881977613
7470198,Näsinge,59.00965618744027,11.333206666485157
7470184,Dalskogens kyrkogård,58.285785510819565,11.463672239766439
7470187,Badhusberget vändplan,58.27954515403076,11.430987908630152
7470186,Lysekilshemmet,58.27610859406461,11.428818636631954
7470189,Kyrkskolan,58.39493327730149,11.50026461441316
7470188,Kärnskogen norra,58.32327801439496,11.41599041836775
7470190,Norrkila gård,58.348136908972926,11.463138568613632
7470177,Elversröd,58.153381196357806,11.931644194939654
7470178,Grohed norra,58.29943142039769,11.89825809157668
7470181,Julseröd,58.552335480999034,11.641546590580298
7470183,Röd,58.64586419926623,11.759817670042796
7470109,Frejagatan,59.20268636579607,17.632286118411205
7470106,Gröndal,59.16875125843208,17.615873519553833
7470107,Bollhallen,59.17377901410856,17.613323178798293
7470104,Flintgodsstigen,59.20897167164038,17.589584665499284
7470105,Porslinsvägen,59.20986124307261,17.592152409928545
7470102,Robert Anbergs väg,59.20642827817803,17.600201703199847
7470103,Kakelvägen,59.21033833127669,17.584858320687943
7470101,Linavägen,59.21956922128822,17.574269634422652
7470098,Bergtorpsvägen,59.14388637033822,17.569700804326697
7470099,Fritidsvägen,59.18695468218018,17.587037432527005
7470096,Isbjörnsvägen,59.240123180510416,17.61076893146069
7470097,Ekvägen,59.245464100185416,17.609578872949516
7470095,Hackspettstigen,59.23812845092397,17.616043389709255
7470094,Björktraststigen,59.23869399743038,17.621207969259036
7470093,Mölnbo Högfors,59.05447403311908,17.4551332886485
7470092,Karltorp,59.07409235382632,17.53781416425534
7470091,Scania bilförvaltningen,59.1680845747594,17.647981562786697
7470090,Industrigatan,59.09320924586921,17.563783081093874
7470089,Rönnvägen,59.09698200337481,17.56432516818224
7470088,Tavestaskolan,59.095208461418345,17.560028763445807
7470087,Fjärilstigen,59.09707112695228,17.550403304494733
7470086,Kallfors,59.11254578449745,17.549426147420554
7470085,Hummelmora,59.12555106880273,17.551134879968718
7470084,Valstavägen,59.15052388428369,17.578117590121465
7470083,Skogslund,59.1732871010331,17.451651026566353
7470082,Södertälje Svalängsvägen,59.17435367349911,17.644050853140048
7470081,Nedre Bruksvägen,59.187102082928384,17.457546796032887
7470080,Nykvarn Bärvägen,59.184987776608345,17.411307965392332
7470140,Skanssundet,59.0485927637033,17.68666715500513
7470141,Idrottsvägen,62.6386959653929,17.925495356700377
7470136,Sörby - Valåker,59.00240383932676,17.594724947878415
7470137,Valåker,58.99053398168944,17.578364366989042
7470138,Grindstugan,58.96993959540214,17.5715343766186
7470139,Ritorpsvägen,59.220977823482286,17.63601323564366
7470133,Pärlängsvägen,59.10153605384716,17.54687749012126
7470135,Wij,59.026638530299344,17.547235816554753
7470127,Naturskolan,59.22859667270912,17.557393098297002
7470121,Lövtorpsvägen,59.182381887544736,17.615824299177763
7470120,Sydpoolen,59.19054591685294,17.63491063248605
7470122,Skogsdal,59.27238835376383,17.432591241504113
7470290,Laholm station bron,56.50272489226714,12.998731777186398
7470289,N Röshult,56.347753751435086,14.661142616064508
7470295,Storselet,65.18163479068065,18.93235597558287
7470294,Grönfjäll vägskäl,65.2571273010786,15.694273948402795
7470293,Malgovik Malgovik skola,64.63373998669624,16.376454695612477
7470292,Krokträsk,64.45105333980446,19.33865552798118
7470299,Lerudden,65.32019326066464,17.606628659807704
7470298,Klimpfjäll västra,65.05212671615965,14.760700729262359
7470297,Staggträsk,65.37928048664455,17.82922253525873
7470303,Bogen 1,57.615734398076725,18.303315780739823
7470302,Vendelsö Sågen (Gudöbroleden),59.199450231170495,18.188845090814795
7470300,Storuman Röbroskolan,65.10143597985872,17.128740701133736
7470275,Bernstorp Santessons väg,55.61205625854646,13.095599568576244
7470272,Stala Kärra,58.141506372021766,11.6518478841856
7470278,Ramstorp Fulltofta,55.88864096715088,13.641061303076876
7470279,Höör Yxnaholma,55.93877248116424,13.521320139796666
7470277,Lomma Lillevångsgången,55.679188532100866,13.085532912018882
7470282,Malmö Kontorsvägen,55.61141562869492,13.085340905834078
7470283,Höganäs Kvickbadet,56.199412948599075,12.55426633982365
7470280,Klippan Skolgatan,56.13148113828109,13.134701325180801
7470286,Citygallerian,56.17096955183473,14.859765791922507
7470284,Eslöv Vetegatan,55.8486435764604,13.27881845031165
7470320,Bredbyn Skolbacken,63.4427570876042,18.12343986967206
7470326,Bredbyn Bussgods Bilc,63.45433122509145,18.101993221642314
7470304,Visirvägen,59.2834990624313,17.934246477526422
7470310,Kalknäs skola,63.12799247434078,17.753691772933422
7470315,Österbacke,63.37706738364804,18.47583374015147
7470317,Kittjärn norra,62.611406797444545,17.840998149299
7470318,Lägdom,62.61197851505131,17.860851952870195
7470319,Hornöberget,62.8033249627502,17.952189943211277
7470231,Trestad Center väg 44,58.33854401734915,12.24391195795512
7470239,Toboda,56.39305056503786,13.146774831094008
7470238,Nordanå,56.35863734693961,13.210186611369558
7470237,Sjöalt,56.35652005865796,13.229264688667747
7470232,Blåeldsvägen,57.6104301444034,18.297629652156257
7470215,Holmsgatan,58.7072365853293,12.454852712232988
7470261,Torsvägen,57.72678501732412,12.073102287999847
7470263,Doteröds industriområde,58.073164248977946,11.837317393994132
7470262,Ullstorp,57.89329774234174,11.950033503132067
7470256,Lona Knapes Gata,57.64960094195728,11.942089288338547
7470269,ICA Kvantum,58.07584267332098,11.827536343227663
7470271,Vindön varvet,58.30223319884249,11.696325900163083
7470270,Västersjön,58.09098178959789,12.046388047864047
7470265,Övergård,58.050572611735454,11.856779045033358
7470264,Shell Ekbacken,58.0687926551129,11.855103763923246
7470267,Strandängsvägen,58.07555173103836,11.819391743271687
7470266,Norra Hamnplan,58.07820947773952,11.82074067201269
7470244,Johansfors,56.83871879093775,12.981482527109
7470245,Halmstad Flygstaden,56.67782016448113,12.805510822655046
7470246,Kaggs,56.871002036984095,12.592655116740165
7470247,Hanarp norra,56.875261664991584,12.643325081498613
7470240,Boge Kors,57.681168501394716,18.76766115891465
7470241,Laholm Ängstorp,56.50054041451253,13.017413136257018
7470242,Laholm Kullsgård,56.500909065593824,13.005851677721926
7470243,Åled Rörflyvägen,56.7416339917836,12.935966305988263
7470252,Varberg Lorensberg östra,57.105072288733716,12.256340508447
7470253,Varberg Ridgymnasiet,57.12834495876053,12.291291429216548
7470254,Varberg Peder Skrivares,57.10433236115417,12.268301393946913
7470255,Varberg Kärrvägen,57.106746352494746,12.271043785609328
7470248,Havkärr,57.21496766027295,12.408431520616558
7470249,Falkenberg Stortorget gymnasie,56.906266237375156,12.491077779918497
7470250,Hajdeby,57.44009265420587,18.74214401008051
7467963,Norrnäs,59.63049792057603,18.911501661010103
7467962,Västerö,59.63575703354251,18.93661007651101
7467961,Källviken,59.635383771478836,18.944327381798935
7467960,Parkudden,59.62845764374629,18.97308651750798
7467967,Almvik brygga vägskäl,59.62057698704973,18.89343902475318
7467966,Horsvärn,59.622896023574064,18.89794326567286
7467965,Blidösundsgården,59.62537286326146,18.899944493021337
7467964,Sjöhagen,59.627972448752985,18.904351571063483
7467955,Gransäter,59.642406140513486,18.94741435290394
7467954,Eknäs vägskäl,59.648232636677456,18.944552180789007
7467953,Björkö-Arholma skola,59.86240340433781,19.03666524429465
7467952,Sörgården,59.836715127677685,18.95730762516605
7467959,Söderäng (Blidö),59.62901694924691,18.966665513770383
7467958,Granövägen,59.63096649731283,18.963673938973724
7467957,Fällgate,59.63396918287347,18.958350704955738
7467956,Oxhalsö,59.637276502123704,18.9500569480131
7467946,Olsgården (Bagghusbron),59.93827740668999,18.84692155725223
7467944,Husinge mellersta,59.9447686780129,18.777316754289497
7467945,Husinge östra,59.94100455023284,18.784516160558706
7467950,Tjustboda,59.827514961546704,18.951763370695996
7467951,Bofinksvägen,59.83296486444341,18.951492586047895
7467948,Solbacken,59.81871077657365,18.94843566033684
7467949,Klockarängen,59.82513346581942,18.950307677145254
7467938,Skeppsmyra by,59.829717285789386,19.058424136531876
7467939,Skeppsmyra östra,59.830921793628995,19.065286861800736
7467936,Sjöängen,59.83446655336503,19.04798359995085
7467937,Skeppsmyra affär,59.828752260607175,19.052762898798132
7467942,Massums båtbyggeri,59.95072946046578,18.764671508322575
7467943,Husinge västra,59.94874489914971,18.768254641071533
7467940,Bråland 44,58.01803588925876,11.845770501321992
7467941,Massum mellersta,59.954996672924,18.763028452961255
7467929,Vreta handel,59.733058946785945,18.789561020964136
7467928,Brokholmsvägen,59.5918226469295,18.81830830985506
7467931,Östra Ledinge,59.699142094178,18.486678267935833
7467930,Tomta södra,59.71909288588975,18.97685420967801
7467933,Västra Ledinge,59.69432251678294,18.47859977441161
7467932,Bodal,59.632763655893314,18.599371834596933
7467935,Harnäset,59.84132287950589,19.049346918835774
7467921,Bredviken,59.59973909595658,18.831030919858886
7467920,Ladviksudd,59.60133866198131,18.831777239465996
7467923,Alsvassen,59.59230799972037,18.822196042740877
7467922,Granhyddan,59.59338151767135,18.828227193720007
7467925,Vagnsunda tomtområde,59.5843851623925,18.79755813286143
7467924,Grundviken,59.587654082604466,18.811700246052744
7467927,Kolmilstad,59.58126217063262,18.792321969681492
7467926,Källsby,57.984327221277134,11.818344381792828
7467912,Yxlö brygga vägskäl,59.62893665580469,18.87253430726665
7467913,Yxlö affär,59.62452084240532,18.868159222709725
7467914,Yxlö bygdegård,59.61888907242126,18.8650753883176
7467915,Yxlövik,59.61587630542583,18.86561678472781
7467916,Lillängen,59.610715033144764,18.861229830333873
7467917,Hysängen,59.609132371262874,18.85591041310034
7467918,Alsvik,59.60665936668656,18.84792330058755
7467919,Hamnviken,59.60422202504535,18.84070266326864
7467904,Hysingsviks vägskäl,59.681980161268456,18.750129767722388
7467905,Storäng,59.65020059852068,18.923066919420133
7467906,Sundäng,59.64429146492152,18.91393041589478
7467907,Skarmsunds vägskäl,59.64222318451422,18.905683842065265
7467908,Värna hage,59.63964540639048,18.900354216211824
7467909,Kolsvik,59.63434865186799,18.895662356430293
7467910,Kolsviks tomtområde,59.633537581622356,18.887765333064564
7467911,Eneberg (Yxlan),59.63109324885239,18.87748450482781
7468031,Norrmarum,59.85629225790968,19.021375364226035
7468030,Östermarum,59.858951713430464,19.027597151789198
7468029,Dragsviken,59.86584854328091,19.030979851085398
7468028,Granbo,59.86807795777607,19.025407938541974
7468027,Östra Edsvik,59.87007884535032,19.01409642303095
7468026,Finala gård,59.87449417743576,19.01205644710918
7468025,Utanå vägskäl,59.87936407244971,19.001660874319313
7468024,Stridsby,59.879405579721436,18.995875023231722
7468023,Björkögården/Västra Edsvik,59.87825999522239,18.986419590409227
7468022,Glämsta,59.889656804438324,18.966363223297463
7468021,Väddöbacka affär,59.89510739625456,18.959694392002667
7468020,Samkarby,59.8969667048665,18.95030554550365
7468019,Väddöbacka vägskäl,59.89871175635657,18.944176916609344
7468018,Salnö skola,59.90031848379505,18.943470340072782
7468017,Salnö vägskäl,59.903816937877856,18.941404347704566
7468016,Sörängens koloni,59.91116069720265,18.93438830138001
7468014,Stugornas koloni,59.91851551716114,18.926887227343986
7468015,Sörgårdens koloni,59.91733515463284,18.929316658902493
7468012,Granlidens koloni,59.92376992184873,18.907877590278915
7468013,Vretarnas koloni,59.922682892336546,18.91017363981828
7468010,Granö södra,59.92907314512347,18.896633401068854
7468011,Granviks koloni,59.92565190189715,18.904241974633205
7468008,Vilan,59.93926052180835,18.873880940595793
7468009,Granö gård,59.93096306864754,18.887270387456745
7468006,Västernäs affär,59.94449234794912,18.85356045031208
7468007,Rangarnö,59.942844838690064,18.871544769605386
7468004,Västernäs skola,59.94926920129789,18.84701581305079
7468005,Västernäs trädgård,59.94676932721443,18.84830859771998
7468002,Södersund,59.96372436492406,18.832039795638078
7468003,Kista,59.95316550472775,18.843200378002074
7468000,Hammarby,59.973595674295,18.815541490127696
7468001,Södersund norra,59.96641462964635,18.825172957259248
7467997,Eknö brygga/Skeppsudden,59.66419639392085,18.892657700834516
7467996,Eknö,59.66554235342811,18.880868011741608
7467999,Björkö-Arholma kyrka,59.86388819571077,19.035094617067582
7467998,Larshamn,59.65212149224331,18.931799834474074
7467993,Svartnöbron,59.66970452812228,18.839076999348173
7467992,Humlö,59.67744171300849,18.836206735037905
7467995,Högmarsö vägskäl,59.66603979081482,18.861898012379534
7467994,Svartnö by,59.66694255787229,18.85011966796564
7467989,Sikströmmen,59.68138201200599,18.801534755910716
7467988,Fårholmen,59.676574213487626,18.790609251880582
7467991,Idö (Spillersboda),59.6813644152687,18.828141619321304
7467990,Nässelgrund,59.68137593811358,18.815140360706845
7467985,Grovstanäs vägskäl,59.679418230258534,18.741006587034967
7467984,Matsgården,59.679140577338316,18.736151336741408
7467987,Lappströmmen,59.675979403469846,18.7843759972993
7467986,Hysingsviks brygga,59.67987913487276,18.74529186785996
7467980,Sidfjärden,59.93596229076503,18.882436246234715
7467981,Fiskarudden,59.67990126950091,18.71327038121382
7467982,Skönvik,59.67903103096191,18.724952500980653
7467983,Sundberg,59.67900419688447,18.731397302153255
7467976,Sikmarö norra,59.59549141751564,18.874606359309407
7467977,Sikmarö mellersta,59.59388473584969,18.869569994114816
7467978,Sikmarö södra,59.59263374523082,18.863910951736422
7467979,Tallbacken,59.59073311051834,18.859522065370655
7467972,Bruket norra,59.60738790010395,18.882869905517893
7467973,Bruket södra,59.60268439711076,18.881199184377213
7467974,Boda (Blidö),59.60036595756699,18.882387173534916
7467975,Strömsängen,59.598294414035706,18.87803373617637
7467968,Ekbacken (Blidö),59.618429382471184,18.893472284336422
7467969,Blidö gård,59.61397012114347,18.894020114138282
7467971,Kalvik,59.610694831582165,18.891592246294675
7467826,Andelunden,59.53992378928294,18.760395934003988
7467827,Ramsdal-Fladen,59.546565602175285,18.792255966152027
7467824,Lilla Sundsholmen,59.537233765667104,18.742244261343576
7467825,Klintsundet,59.538159341101334,18.7466226700463
7467830,Joffsviken,59.5448972439988,18.817228839596577
7467828,Bystaviken,59.54788567262401,18.804049668737186
7467829,Ladängen,59.54653207636652,18.813712695366974
7467834,Sabelvägen,59.46761164942607,18.333538988219775
7467835,Berga (Kårsta),59.62813352668019,18.33096985019461
7467838,Cedersdalsvägen,59.529449531651785,18.1079432589247
7467839,Moränvägen,59.527751366247564,18.100332525527428
7467836,Vadatorp,59.5748467471653,18.20865170171032
7467837,Östgötavägen,59.545100132538536,18.084923128231154
7467811,Tranvik,59.436714539608815,18.559736000055857
7467810,Staveströms vägskäl,59.43954976006901,18.56412807007804
7467809,Stensvik,59.450229150911795,18.56707954066622
7467808,Solvik,59.45548574356313,18.566538040046776
7467815,Gärdsviks gård,59.54538732248042,18.655423973863435
7467814,Sörgården,59.540619806470254,18.65245656418674
7467813,Inneby,59.53621035374668,18.647062007535546
7467812,Betania,59.52952413700939,18.640204512286328
7467819,Sillviken,59.52308326878148,18.66952178412932
7467818,Aludden,59.52142775130144,18.65608809931431
7467817,Norets vägskäl,59.519095545420925,18.643146900513063
7467816,Gärdsviks brygga,59.54721715451235,18.660478913224587
7467823,Västra Lagnö,59.53618218950231,18.728641030891083
7467822,Björkbacken,59.53583671167534,18.7227926645102
7467821,Lindängskroken,59.53238714530748,18.71232651588462
7467820,Hästede,59.52867423615611,18.693017027481158
7467792,Nolvik,59.52049753384917,18.636476948126855
7467793,Sundvik,59.51258612482061,18.632261623212546
7467794,Skallbara,59.51917989169121,18.6109311177378
7467795,Väsby vägskäl,59.5016031423003,18.583590462810225
7467796,Tuskövägen,59.49494671297585,18.584491655764204
7467797,Ösbyfjärden,59.48966729737299,18.576375568202668
