name;lat;lon;id;gtfsid;gtfsname;gtfslat;gtfslon
Abraham Bäckgatan (Söderhamn kn);61.297254679799;17.062494278871;82187;7406160;Söderhamn Abraham Bäckgatan;61.297298463173;17.062570473605
Abrams stuga (Nordanstig kn);62.049030180295;17.160854999903;32063;7418889;Östergrängsjö Abrams stuga;62.049066335738;17.160779820054
Acktjärnsgatan (Hofors kn);60.567608843848;16.278331855586;4001;7418696;Hofors Acktjärnsgatan;60.567635595265;16.278295808283
Agavägen (Sandviken kn);60.611792329436;16.763834430171;81001;7419663;Sandviken Agavägen;60.611801665643;16.763743356388
Agövägen (Hudiksvall kn);61.728038698424;17.139003932754;84273;7406871;Hudiksvall Agövägen;61.728082193959;17.139100141658
AIC (Ovanåker kn);61.348333932399;16.087644252527;21038;7418794;Alfta AIC;61.348315592926;16.087625332241
Akzo-Nobel (Sundsvall kn);62.333827903878;17.360407136438;90006;7408772;Stockvik Akzo Nobel;62.333089838431;17.363765339451
Alagården (Söderhamn kn);61.217727789897;17.146686824301;82257;7406210;Ljusne Alagården;61.217691533393;17.146685092044
Albertina (Söderhamn kn);61.377279810059;17.101283180101;82107;7406085;Skärså Albertina;61.377261116238;17.10131961226
Alderhulten (Sandviken kn);60.374864003379;16.761278896512;81002;7419702;Alderhulten;60.374863490767;16.761315122939
Ale (Söderhamn kn);61.369677450054;16.954460220683;82108;7406086;Ale;61.369695626218;16.954385894168
Alfta Centrum (Ovanåker kn);61.344906409216;16.064799509728;21039;7400589;Alfta centrum;61.344950846521;16.06479981078
Alfta Hemköp (Ovanåker kn);61.345445628518;16.054751433707;21045;7418800;Alfta Hemköp;61.345418343885;16.054713783581
Alfta Kyrka (Ovanåker kn);61.346659958178;16.072213509595;21062;7418528;Alfta kyrka;61.346641433367;16.072288028701
Allmänningen (Nordanstig kn);62.084925753171;16.797013165695;32139;7418954;Allmänningen;62.08490745438;16.79699314231
Alméns (Söderhamn kn);61.263997784067;17.152777154956;82259;7406228;Sandarne Alméns;61.264033477764;17.152759845561
Almvägen (Gävle kn);60.659253939529;17.124107892819;80083;7419174;Gävle Almvägen;60.659271238874;17.124145068643
Alsjövallen (Sandviken kn);60.637765313085;16.560619461542;81003;7419703;Åshammar Alsjövallen;60.637783267771;16.560565035898
Altorp (Söderhamn kn);61.359744927592;16.977316041786;82110;7406088;Altorp;61.359716971177;16.977389590258
Aludden (Gävle kn);60.707266293448;17.243735694877;80084;7419175;Norrlandet Aludden;60.70723050988;17.243697331568
Abraham Bäckgatan (Söderhamn kn);61.297254679799;17.062494278871;82187;7406160;Söderhamn Abraham Bäckgatan;61.297298463173;17.062570473605
Abrams stuga (Nordanstig kn);62.049030180295;17.160854999903;32063;7418889;Östergrängsjö Abrams stuga;62.049066335738;17.160779820054
Acktjärnsgatan (Hofors kn);60.567608843848;16.278331855586;4001;7418696;Hofors Acktjärnsgatan;60.567635595265;16.278295808283
Agavägen (Sandviken kn);60.611792329436;16.763834430171;81001;7419663;Sandviken Agavägen;60.611801665643;16.763743356388
Agövägen (Hudiksvall kn);61.728038698424;17.139003932754;84273;7406871;Hudiksvall Agövägen;61.728082193959;17.139100141658
AIC (Ovanåker kn);61.348333932399;16.087644252527;21038;7418794;Alfta AIC;61.348315592926;16.087625332241
Akzo-Nobel (Sundsvall kn);62.333827903878;17.360407136438;90006;7408772;Stockvik Akzo Nobel;62.333089838431;17.363765339451
Alagården (Söderhamn kn);61.217727789897;17.146686824301;82257;7406210;Ljusne Alagården;61.217691533393;17.146685092044
Albertina (Söderhamn kn);61.377279810059;17.101283180101;82107;7406085;Skärså Albertina;61.377261116238;17.10131961226
Alderhulten (Sandviken kn);60.374864003379;16.761278896512;81002;7419702;Alderhulten;60.374863490767;16.761315122939
Ale (Söderhamn kn);61.369677450054;16.954460220683;82108;7406086;Ale;61.369695626218;16.954385894168
Alfta Centrum (Ovanåker kn);61.344906409216;16.064799509728;21039;7400589;Alfta centrum;61.344950846521;16.06479981078
Alfta Hemköp (Ovanåker kn);61.345445628518;16.054751433707;21045;7418800;Alfta Hemköp;61.345418343885;16.054713783581
Alfta Kyrka (Ovanåker kn);61.346659958178;16.072213509595;21062;7418528;Alfta kyrka;61.346641433367;16.072288028701
Allmänningen (Nordanstig kn);62.084925753171;16.797013165695;32139;7418954;Allmänningen;62.08490745438;16.79699314231
Alméns (Söderhamn kn);61.263997784067;17.152777154956;82259;7406228;Sandarne Alméns;61.264033477764;17.152759845561
Almvägen (Gävle kn);60.659253939529;17.124107892819;80083;7419174;Gävle Almvägen;60.659271238874;17.124145068643
Alsjövallen (Sandviken kn);60.637765313085;16.560619461542;81003;7419703;Åshammar Alsjövallen;60.637783267771;16.560565035898
Altorp (Söderhamn kn);61.359744927592;16.977316041786;82110;7406088;Altorp;61.359716971177;16.977389590258
Aludden (Gävle kn);60.707266293448;17.243735694877;80084;7419175;Norrlandet Aludden;60.70723050988;17.243697331568
Anders-Nils (Ljusdal kn);61.665087439766;16.153401967325;61143;7419032;Löräng Anders-Nils;61.665113983342;16.153364370877
Andtjärnsvägen (Hudiksvall kn);61.702596367303;17.093861507139;84378;7407033;Hudiksvall Andtjärnsväge;61.702577099252;17.09395496417
Anneberg (Söderhamn kn);61.286398234808;16.964211920416;82001;7419972;Anneberg;61.286415792004;16.964212391329
Apoteket (Hudiksvall kn);61.729401482623;17.105480350187;84060;7406735;Hudiksvall Apoteket;61.72894172924;17.105649923797
Arbrå jvstn (Bollnäs kn);61.470907611514;16.379439757208;83043;7400615;Arbrå station;61.470321393681;16.380029181045
Arbrå kyrka (Bollnäs kn);61.490339916865;16.374221724611;83044;7406364;Arbrå kyrka;61.490735001035;16.374059839207
Arbrå skolan (Bollnäs kn);61.479778693543;16.376131129889;83045;7406365;Arbrå skolan;61.479686249502;16.37667351686
Arentvägen (Gävle kn);60.721995630561;17.170765641038;80087;7419178;Hille Arentvägen;60.721996082354;17.170692238608
Arklo (Söderhamn kn);61.359957577915;16.993159225762;82111;7406089;Arklo;61.359939727297;16.993102271684
Arla (Gävle kn);60.727886231026;17.277501278567;80088;7419179;Norrlandet Arla;60.727868800638;17.277427027809
Arnögården (Hudiksvall kn);61.701075559209;17.386697958457;84183;7406853;Arnögården;61.701039251562;17.386695811726
Arnöviken (Hudiksvall kn);61.69654222474;17.385993526578;84184;7410039;Arnöviken;61.696558648126;17.386088581934
Aseavägen (Bollnäs kn);61.343410025525;16.384731210217;83142;7406478;Bollnäs Aseavägen;61.343427872685;16.384656694686
Asfaltverket (Gävle kn);60.608208053851;17.120400919072;80648;7419696;Sälgsjön Asfaltverket;60.608234514333;17.120420154051
Askers (Söderhamn kn);61.211211905688;17.091069865147;82002;7419973;Askers;61.211228772292;17.091144801835
Askesta (Söderhamn kn);61.247828803557;16.996846865703;82003;7419989;Askesta (Onsäng);61.247810152472;16.996883244008
Asplunds (Bollnäs kn);61.574808725711;16.564959778518;83383;7445847;Asplunds;61.574790338174;16.564959157725
Asta (Söderhamn kn);61.272925432307;16.993471462853;82004;7419990;Asta;61.272879536351;16.993544128112
Atlasgatan (Gävle kn);60.670648160459;17.18088616606;80476;7419544;Gävle Atlasgatan;60.670638152218;17.180958802132
Axmarbruk (Gävle kn);61.048781506754;17.144211434849;80001;7410054;Axmar bruk;61.048799471528;17.144175000805
Axmarby (Gävle kn);61.001021078302;17.1160271822;80002;7410055;Axmarby;61.001055909136;17.116102400749
Backa Toftbyn (Falun kn);60.711864004897;15.774006791468;91014;7408810;Backa;60.711881601911;15.773970229305
Backabro Toftbyn (Falun kn);60.710623932485;15.768037261924;91015;7408817;Backabro;60.710623609886;15.768110611856
Backabron (Sandviken kn);60.660970082913;16.710685191978;81004;7419704;Jäderfors Backabron;60.66099657974;16.710704176427
Backmo (Hudiksvall kn);61.816255128811;16.791531470055;84107;7406782;Backmo;61.816272473128;16.79155075785
Backsveden (Bollnäs kn);61.361637177119;16.425299481688;83115;7406433;Bollnäs Backsveden;61.361645391546;16.425374307963
Backåkers (Bollnäs kn);61.31759773257;16.23546599686;83085;7406403;Sörbo (Söräng) Backåkers;61.317597548459;16.235391236637
Baggbo (Gävle kn);60.341306329992;16.965369554853;80536;7419602;Baggbo;60.341288458938;16.965332660968
Balder (Söderhamn kn);61.304399124908;17.105387583003;82188;7406161;Söderhamn Balder;61.304434448243;17.105407509795
Baldra (Hudiksvall kn);61.771398405014;17.024688105971;84091;7406766;Baldra;61.771416234504;17.024650662768
Ballsta bro (Sandviken kn);60.501154685598;16.745665002618;81325;7457428;Ballsta bro;60.501171847243;16.745738262811
Balungstrand (Falun kn);60.888421012464;15.749794342549;91016;7413032;Balungstrand;60.888402713251;15.749849688134
Barkargatan (Hudiksvall kn);61.648824154241;17.095379708753;84046;7406724;Iggesund Barkargatan;61.648806491232;17.095303244611
Barkhyttan (Hofors kn);60.564235965605;16.38310303814;4003;7418698;Barkhyttan;60.564262670802;16.383085297455
Barnängen (Ovanåker kn);61.380541843774;15.83461872884;21016;7418789;Edsbyn Barnängen;61.380550366888;15.834637401457
Barrsätra (Sandviken kn);60.616534911127;16.754514627939;81006;7419706;Sandviken Barrsätra;60.61653423107;16.754569350605
Bastfallet (Sandviken kn);60.398831758995;16.712093023018;81007;7419707;Bastfallet;60.398813306202;16.712128782264
Baståsen (Nordanstig kn);62.036481909094;17.102163617043;32058;7418884;Baståsen;62.036526644264;17.102126991963
Basvägen (Gävle kn);60.672622698036;17.063033249005;80090;7419181;Gävle Basvägen;60.67260446317;17.063032437136
Beckasinvägen (Gävle kn);60.682179389944;17.152900506404;80091;7419182;Gävle Beckasinvägen;60.682143212968;17.152898878845
Berg (Gävle kn);60.402685307475;17.018717575487;80007;7419111;Berg;60.402658470546;17.018680232235
Backa Toftbyn (Falun kn);60.711864004897;15.774006791468;91014;7408810;Backa;60.711881601911;15.773970229305
Backabro Toftbyn (Falun kn);60.710623932485;15.768037261924;91015;7408817;Backabro;60.710623609886;15.768110611856
Backabron (Sandviken kn);60.660970082913;16.710685191978;81004;7419704;Jäderfors Backabron;60.66099657974;16.710704176427
Backmo (Hudiksvall kn);61.816255128811;16.791531470055;84107;7406782;Backmo;61.816272473128;16.79155075785
Backsveden (Bollnäs kn);61.361637177119;16.425299481688;83115;7406433;Bollnäs Backsveden;61.361645391546;16.425374307963
Backåkers (Bollnäs kn);61.31759773257;16.23546599686;83085;7406403;Sörbo (Söräng) Backåkers;61.317597548459;16.235391236637
Baggbo (Gävle kn);60.341306329992;16.965369554853;80536;7419602;Baggbo;60.341288458938;16.965332660968
Balder (Söderhamn kn);61.304399124908;17.105387583003;82188;7406161;Söderhamn Balder;61.304434448243;17.105407509795
Baldra (Hudiksvall kn);61.771398405014;17.024688105971;84091;7406766;Baldra;61.771416234504;17.024650662768
Ballsta bro (Sandviken kn);60.501154685598;16.745665002618;81325;7457428;Ballsta bro;60.501171847243;16.745738262811
Balungstrand (Falun kn);60.888421012464;15.749794342549;91016;7413032;Balungstrand;60.888402713251;15.749849688134
Barkargatan (Hudiksvall kn);61.648824154241;17.095379708753;84046;7406724;Iggesund Barkargatan;61.648806491232;17.095303244611
Barkhyttan (Hofors kn);60.564235965605;16.38310303814;4003;7418698;Barkhyttan;60.564262670802;16.383085297455
Barnängen (Ovanåker kn);61.380541843774;15.83461872884;21016;7418789;Edsbyn Barnängen;61.380550366888;15.834637401457
Barrsätra (Sandviken kn);60.616534911127;16.754514627939;81006;7419706;Sandviken Barrsätra;60.61653423107;16.754569350605
Bastfallet (Sandviken kn);60.398831758995;16.712093023018;81007;7419707;Bastfallet;60.398813306202;16.712128782264
Baståsen (Nordanstig kn);62.036481909094;17.102163617043;32058;7418884;Baståsen;62.036526644264;17.102126991963
Basvägen (Gävle kn);60.672622698036;17.063033249005;80090;7419181;Gävle Basvägen;60.67260446317;17.063032437136
Beckasinvägen (Gävle kn);60.682179389944;17.152900506404;80091;7419182;Gävle Beckasinvägen;60.682143212968;17.152898878845
Berg (Gävle kn);60.402685307475;17.018717575487;80007;7419111;Berg;60.402658470546;17.018680232235
Berg (Hofors kn);60.514578629385;16.449451257291;4004;7418699;Berg;60.514596642632;16.449378807558
Berga (Bollnäs kn);61.349718879481;16.619645942537;83284;7406614;Berga;61.349763111385;16.619684326861
Berga (Sandviken kn);60.506255293859;16.815413933771;81270;7419956;Berga;60.50622810136;16.815413047803
Berga (Söderhamn kn);61.370388949161;16.898586938695;82112;7406090;Berga;61.370423685686;16.898681478056
Bergbo (Hofors kn);60.515027234201;16.432492790386;4005;7418700;Bergbo;60.515036092447;16.432456566829
Bergby (Gävle kn);60.92839286691;17.039771860684;80092;7401017;Bergby;60.928357153591;17.039715018854
Bergby skola (Gävle kn);60.925505689003;17.044344174227;80697;7430129;Bergby skola;60.925531767258;17.044400374491
Berge (Hudiksvall kn);61.854069835315;16.562051461278;84130;7406803;Berge (Bjuråker);61.854069775499;16.561975259499
Berge (Söderhamn kn);61.408656689931;16.814858654942;82113;7406091;Berge;61.408674502246;16.814821605705
Bergebron (Nordanstig kn);61.982675322123;17.067983331623;32051;7418877;Bergsjö Bergebron;61.982638967204;17.067981532751
Bergesta (Nordanstig kn);62.049363207899;17.25024942625;32018;7418848;Gnarp Bergesta;62.04932665565;17.250266486919
Bergevägen (Nordanstig kn);62.049051303927;17.254326022448;32017;7418847;Bergevägen;62.049015552525;17.25426664127
Bergevägen (Ovanåker kn);61.359795274518;15.895222814542;21017;7418790;Ovanåker Bergevägen;61.35979485802;15.895185381365
Berglunda (Gävle kn);60.614276181812;16.957706831172;80008;7419112;Överhärde Berglunda;60.614311318058;16.957762793762
Bergsjö bstn (Nordanstig kn);61.985488148536;17.057702092827;32103;7400592;Bergsjö busstn;61.985513723475;17.057798235515
Bergsjö kyrka (Nordanstig kn);61.982468357578;17.063129444516;32101;7418926;Bergsjö kyrka;61.982503073834;17.063206882495
Bergsstigen (Nordanstig kn);61.898477994688;17.349138586926;32039;7418866;Stocka Bergsstigen;61.898468785256;17.349118785714
Bergstig (Gävle kn);60.732341682826;17.123509353072;80093;7419183;Åbyggeby Bergsstig;60.732341745645;17.123472577062
Bergströms (Bollnäs kn);61.32875858269;16.258458464756;83086;7406404;Freluga väg 301 Bergströms;61.328740028551;16.258514134687
Bergsveden (Bollnäs kn);61.357105098864;16.433172944607;83116;7406434;Bollnäs Bergsveden;61.357122800204;16.433135796994
Bergsvägen (Hudiksvall kn);61.727148066738;17.129960327179;84275;7406873;Hudiksvall Bergsvägen;61.727183327837;17.129980494807
Bergsänge (Bollnäs kn);61.56186410175;16.337803687752;83001;7406312;Bergsänge;61.56186394462;16.337728282553
Bergvik (Nordanstig kn);61.975554888966;17.053614150803;32098;7418923;Bergsjö Bergvik;61.97559064565;17.053577174052
Bergviken (Hofors kn);60.569941627567;16.417980972725;4007;7418702;Bergviken;60.569941164311;16.418017446684
Bergviks kyrka (Söderhamn kn);61.261747828364;16.822632755964;82380;7408767;Bergvik kyrka;61.261792581427;16.82259677493
Bergviksbron (Söderhamn kn);61.25782927477;16.834096817665;82007;7400707;Bergvik Bergviksbron;61.257934298334;16.834398246073
Bergviksskolan (Söderhamn kn);61.264707691802;16.833594628682;82008;7417975;Bergvik Bergviksskolan;61.264670707912;16.833686458473
Bers (Söderhamn kn);61.28297516286;16.969885917827;82009;7419994;Söderala Bers;61.282956992408;16.969866419288
Bessbo (Bollnäs kn);61.503081177792;16.357101420649;83046;7406366;Bessbo;61.503098303951;16.357195489809
Bessemergymnasiet (Sandviken kn);60.623085599631;16.763529828382;81009;7419709;Sandviken Bessemergymnasiet;60.62311222766;16.763530568202
Betania Enviken (Falun kn);60.813497026301;15.759830017501;91017;7408820;Enviken Betania;60.813469767295;15.759903626065
Betaniavägen (Hudiksvall kn);61.601570996878;17.048026472748;84033;7406713;Njutånger Betaniavägen;61.601587657252;17.048121111937
Bilmetro (Hudiksvall kn);61.716638198067;17.094220195756;84054;7406730;Hudiksvall Bilmetro;61.716665204096;17.094164329503
Bilprovningen (Hudiksvall kn);61.746174478033;17.110256999678;84276;7406934;Hudiksvall Bilprovningen;61.746217990392;17.110353225703
Biltema (Gävle kn);60.642505631283;17.145724536541;80701;7463714;Gävle Geodetgatan;60.640931344081;17.145147304737
BJ-Arena (Sandviken kn);60.610267904728;16.748469411454;81238;7419930;Sandviken BJ-Arena;60.61029402009;16.748543166194
Bjuråker (Hudiksvall kn);61.859621924389;16.56414498767;84131;7406804;Bjuråker;61.859621132608;16.564201739292
Bjurängsvägen (Gävle kn);60.725249484263;17.127287305995;80095;7419185;Åbyggeby Bjurängsvägen;60.72521402129;17.127212427338
Bjåstavägen (Nordanstig kn);61.986231862965;17.036879900423;32138;7418953;Bjåsta vägskäl;61.986240700797;17.036841806208
Björa (Ljusdal kn);61.656912619169;16.167276174127;61144;7419060;Lörstrand Björa;61.656912248622;16.167238285518
Björkallén (Hudiksvall kn);61.71288174262;17.089979057603;84381;7407036;Hudiksvall Björkallén;61.712844887681;17.090033996928
Björkbacken (Söderhamn kn);61.282986821905;16.763940160199;82383;7445844;Björkbacken;61.282950274442;16.763976196557
Björkberg (Hudiksvall kn);61.729425231916;17.141315277104;84277;7406935;Hudiksvall Björkberg;61.72940758686;17.141238569551
Björke (Gävle kn);60.665398432545;17.143529143367;80096;7419186;Gävle Björkegrenska;60.665361527312;17.143600669403
Björkegrenska (Gävle kn);60.665398432545;17.143529143367;80098;7419186;Gävle Björkegrenska;60.665361527312;17.143600669403
Björkhagsskolan (Hofors kn);60.54724936622;16.276960089485;4006;7418701;Hofors Björkhagsskolan;60.547267210227;16.276905714283
Björklunda (Ockelbo kn);60.887959563016;16.782763001931;1015;7417696;Björklunda;60.88792387129;16.782688147872
Björksätra mitt (Sandviken kn);60.605890269014;16.750678735104;81011;7419711;Sandviken Björksätra mitt;60.606059703381;16.750793183773
Björktjära förskolan (Bollnäs kn);61.365890930694;16.384510508736;83117;7406435;Bollnäs Björktjära försk;61.365863590002;16.384509892287
Björktjära skola (Bollnäs kn);61.363689842861;16.385086866339;83118;7406436;Bollnäs Björktjära skola;61.3635233635;16.386149361691
Björktjäravägen (Bollnäs kn);61.361817325254;16.39482985268;83120;7406438;Bollnäs Björktjäravägen;61.361963389194;16.394159454058
Björkträvillan (Ovanåker kn);61.339894821774;15.944747342525;21040;7418795;Viksjöfors Björkträvillan;61.339921231195;15.944822137579
Björneborg (Söderhamn kn);61.252776529783;16.826963656022;82010;7419995;Bergvik Björneborg;61.252785115166;16.826963782124
Björnänge (Söderhamn kn);61.303621166463;17.038637126285;82190;7406163;Söderhamn Björnänge;61.303621456952;17.038562299971
Björsjö (Gävle kn);60.662696407719;17.228066855731;80100;7419188;Gävle Björsjö;60.662696901803;17.227993589495
Björtomta (Bollnäs kn);61.350127009261;16.642606280527;83286;7406616;Björtomta;61.350162032688;16.642681826647
Blindtarmsvägen (Ovanåker kn);61.337469375647;15.998460823058;21077;7418827;Blindtarmsvägen;61.337433100346;15.998423185622
Blockvägen (Hudiksvall kn);61.741471663022;17.112159042882;84278;7406936;Hudiksvall Blockvägen;61.741443587314;17.112233298633
Blomberget (Hudiksvall kn);61.767250050918;16.878706474206;84014;7406700;Näsviken Blomberget;61.767250188642;16.878630469659
Blomkransen (Bollnäs kn);61.34586920891;16.371864797984;83119;7406437;Bollnäs Blomkransen;61.345904917162;16.371809278443
Blomsterängsvägen (Gävle kn);60.661571376181;17.186315522139;80596;7463719;Gävle Blomsterängsvägen;60.66160585039;17.186426620564
Blykällarbacken (Bollnäs kn);61.367093183851;16.638908024638;83287;7406617;Blykällarbacken;61.367057339662;16.638832131035
Blyss (Ovanåker kn);61.370076880336;15.745730175143;21006;7411749;Blyss;61.370040569272;15.745805016875
Blåsippsvägen (Hudiksvall kn);61.74149083427;17.12516276586;84279;7406937;Hudiksvall Blåsippsvägen;61.741499909039;17.125106107635
Blåsåsen (Gävle kn);60.679434879291;17.124713465584;80102;7419190;Gävle Blåsåsen;60.679281341006;17.124780272864
Blästa (Hudiksvall kn);61.758278695249;17.205267618746;84171;7406841;Blästa;61.758295230272;17.205362781817
Blötängsvägen (Söderhamn kn);61.295029461209;17.032982812032;82235;7406205;Söderhamn Ridhuset;61.294966104372;17.032998809171
Boda (Söderhamn kn);61.363252872332;16.921952930961;82114;7406092;Boda;61.363234222099;16.921989479593
Bodarna (Bollnäs kn);61.347599728187;16.491211048789;83288;7406618;Bodarna;61.347599126131;16.491248286579
Bodarne (Söderhamn kn);61.285804093568;16.760221224387;82011;7419996;Bodarne;61.285849086448;16.760147837972
Bodarnevägen (Hudiksvall kn);61.64741841557;17.097887424025;84045;7406723;Iggesund Bodarnevägen;61.647435926711;17.097887907004
Bodåker (Bollnäs kn);61.329674361437;16.250160930078;83087;7406405;Bodåker;61.329665088759;16.250123359833
Bofara (Bollnäs kn);61.210847842153;16.533041463953;83203;7406538;Bofara;61.210882943905;16.533116591006
Bogården (Bollnäs kn);61.570877362246;16.455362546532;83002;7406313;Bogården;61.570868121979;16.455324554029
Bohusvägen (Söderhamn kn);61.294751762547;17.073961651163;82191;7406164;Söderhamn Bohusvägen;61.294768625206;17.074036768527
Boives (Bollnäs kn);61.347739686505;16.712639109277;83289;7406619;Boives;61.347738907718;16.712694997177
Bolagsgården (Nordanstig kn);61.911984081035;17.265254375774;32042;7418868;Edsäter Bolagsgården;61.911947340291;17.265290385529
Bolagsvägen (Söderhamn kn);61.259585737287;17.139673159673;82261;7406230;Sandarne Bolagsvägen;61.259584994332;17.139710205901
Bollnäs Brotorget (Bollnäs kn);61.348204541356;16.396704630032;83126;7410138;Bollnäs Brotorget;61.348222070295;16.396704849737
Bollnäs jvstn (Bollnäs kn);61.350679734033;16.392938783574;83121;7400128;Bollnäs station;61.349733781003;16.391612814803
Bollnäs Sjukhuset (Bollnäs kn);61.353903948678;16.362440274331;83173;7406509;Bollnäs Sjukhuset;61.353928230941;16.362982620357
Bollnäs Söder (Bollnäs kn);61.332608191325;16.40477874639;83144;7406480;Bollnäs Söder;61.332571718377;16.404815297409
Bollnäs Voltersberg (Bollnäs kn);61.355158892356;16.398891655696;83196;7406532;Bollnäs Voltersberg;61.355122580506;16.398890857288
Bomhus centrum (Gävle kn);60.6761302196;17.21650919311;80190;7419265;Gävle Bomhus centrum;60.676103018727;17.216507878605
Bomhus kyrka (Gävle kn);60.682240464784;17.230320112029;80682;7419561;Gävle Kontorsvägen;60.682468156919;17.225754503199
Bondebo (Hudiksvall kn);61.833880302688;16.568369348062;84128;7406801;Bondebo;61.833844254281;16.568311288725
Bonden (Bollnäs kn);61.355436665126;16.386504529549;83122;7406459;Bollnäs Bonden;61.35544498003;16.38656064726
Borbäcken (Ovanåker kn);61.350246226607;15.589015390683;21095;7423033;Borbäcken;61.350227885225;15.589052892448
Borg (Söderhamn kn);61.338624398304;17.036555940572;82115;7406093;Borg;61.338641781006;17.036575112253
Borgen (Ovanåker kn);61.386799465264;15.803211034581;21094;7430128;Edsbyn Borgen;61.386834911148;15.803210993197
Born (Hofors kn);60.54469572705;16.303052982016;4009;7418704;Hofors Born;60.544659329254;16.303107120858
Born (Ovanåker kn);61.373868809796;15.758253079379;21091;7407138;Born;61.373904281969;15.758327803248
Bornvägen (Bollnäs kn);61.368238401193;16.387489579192;83123;7406460;Bollnäs Bornvägen;61.368273633785;16.387546217229
Borraregatan (Bollnäs kn);61.356865910862;16.377465270041;83124;7406461;Bollnäs Borraregatan;61.356829754773;16.377427117454
Borrsjöån (Sandviken kn);60.605785743368;16.621964213922;81012;7419712;Kungsgården Borrsjöån;60.605830763213;16.621892297095
Borrvägen (Ljusdal kn);61.831350599214;16.046106845374;61351;7419010;Ljusdal Kalvlyckan;61.832781467539;16.048585336894
Bosta (Nordanstig kn);62.051211979693;17.215481518993;32068;7418894;Bosta;62.051210726153;17.215557619073
Botjärn (Sandviken kn);60.762413673869;16.479118862105;81015;7419715;Kungsberg vägskäl Botjärn;60.762431388625;16.479100860539
Bowlinghallen (Hudiksvall kn);61.732891162049;17.103735136727;84062;7406737;Hudiksvall Bowlinghallen;61.73272924267;17.103728065644
Bramsvägen (Hudiksvall kn);61.797029878551;16.519110122328;84233;7406895;Bramsvägen;61.797047646451;16.519053449519
Brandstationen (Hudiksvall kn);61.895238426954;16.547565215739;84139;7406810;Friggesund Brandstationen;61.895246814228;16.547584210805
Bredsand skola (Sundsvall kn);62.352973581771;17.365723194004;90007;7428218;Bredsand skola;62.353010259275;17.365608845012
Bredåker (Nordanstig kn);61.976243336199;17.129016133814;32154;7444627;Bredåker;61.976234628098;17.128939165284
Briggen Gerda (Gävle kn);60.67889466381;17.181128101786;80679;7410279;Gävle Gasklockorna;60.677944942442;17.177427584658
Bringsta (Nordanstig kn);61.925118542357;17.215688192679;32002;7418837;Harmånger Bringsta;61.9251184716;17.215649805064
Brisgatan (Gävle kn);60.646479199825;17.143311785703;80106;7419193;Gävle Brisgatan;60.646514258638;17.143367973316
Britas (Bollnäs kn);61.575427264708;16.553680502267;83382;7445846;Britas;61.575390931115;16.553679457542
Brokvarn (Sandviken kn);60.590990789015;16.537247282417;81017;7419717;Storvik Brokvarn;60.590972744846;16.537210367553
Brolins (Bollnäs kn);61.377891335411;16.628233828096;83304;7406633;Östra Höle Brolins;61.377890696783;16.628271075902
Bromangymnasiet (Hudiksvall kn);61.743526806748;17.104599044121;84384;7407039;Hudiksvall Bromangymnasiet;61.743490838171;17.10455941023
Bromansparken (Hudiksvall kn);61.726781236974;17.105445699961;84142;7406813;Hudiksvall Bromansparken;61.726790483873;17.105370156719
Bromsvallen (Hudiksvall kn);61.809459190256;17.029667101822;84399;7407047;Bromsvallen;61.809422007857;17.029760200366
Bromsäng (Söderhamn kn);61.298297573857;17.114576928245;82194;7406167;Söderhamn Bromsäng;61.298332178141;17.114671469048
Bruggevägen (Ovanåker kn);61.376208684744;15.82831181745;21023;7411277;Edsbyn Bruggevägen;61.3763338467;15.828461492727
Bruket (Sandviken kn);60.614725411546;16.772833302283;81018;7419718;Sandviken Bruket;60.614698595908;16.772777664145
Bruks (Bollnäs kn);61.475907193378;16.370562684885;83047;7406367;Arbrå Bruks;61.47594249407;16.370600720963
Bruksgården (Söderhamn kn);61.259815688124;17.160854283387;82263;7406232;Sandarne Bruksgården;61.259825027484;17.160779939803
Bruksmuseet (Söderhamn kn);61.213555517344;17.134711070006;82282;7406250;Ljusne Bruksmuséet;61.213590303989;17.134786785239
Bruksvägen (Ockelbo kn);60.882229864418;16.702004821893;1035;7418609;Ockelbo Bruksvägen;60.882202363502;16.702040802497
Brunnsgatan (Gävle kn);60.669840656307;17.149000563764;80108;7419195;Gävle Brunnsgatan;60.669884314473;17.149093742279
Brunnsheden (Gävle kn);60.412126658158;16.986908416997;80523;7419590;Brunnsheden;60.412099488061;16.986907379074
Brunnsnäs (Hudiksvall kn);61.635404599773;17.073544763481;84040;7406718;Iggesund Brunnsnäs;61.635367585902;17.073618454462
Bryggargatan (Ljusdal kn);61.824091995509;16.109351834469;61107;7413164;Ljusdal Bryggargatan;61.824136199382;16.10942800569
Bryggerivägen (Ljusdal kn);61.794955437372;16.201311645727;61206;7419107;Hybo Bryggerivägen;61.794919168343;16.201273094879
Brynäs Centrum (Gävle kn);60.671153536892;17.168320384228;80599;7419196;Gävle Brynäs centrum;60.671396987428;17.168184188646
Brynässkolan (Gävle kn);60.672954440807;17.171287332913;80478;7419546;Gävle Brynässkolan;60.672980325677;17.171361498135
Brånan (Bollnäs kn);61.358528558937;16.368261142089;83127;7406463;Bollnäs Brånan;61.358572850852;16.368299214286
Bränderna (Ovanåker kn);61.354128861072;16.097209570314;21041;7418796;Alfta Bränderna;61.354128429881;16.09720949494
Brännas (Ljusdal kn);61.835384032127;16.027383869171;61202;7419103;Brännas;61.835419486235;16.02734600051
Brännvinsbäcken (Söderhamn kn);61.258466373352;17.019891365135;82012;7419997;Brännvinsbäcken;61.258466492427;17.019835284145
Bränta (Ljusdal kn);61.816075288966;15.989721741312;61214;7470627;Bränta;61.816095105127;15.987938500006
Brönars (Bollnäs kn);61.321093933868;16.274610238782;83362;7406681;Brönars;61.321057492181;16.274646947219
Brötgrind (Söderhamn kn);61.350331496475;17.026175123402;82116;7406094;Brötgrind;61.350312991551;17.026192899593
Bullerbyn (Gävle kn);60.56486320579;17.128543038649;80009;7419113;Bullerbyn;60.56489021365;17.128507575259
Bull-Olles (Bollnäs kn);61.356200477831;16.419005092832;83128;7406462;Bollnäs Brattbacken;61.356107377928;16.419657371664
Burmansgatan (Sandviken kn);60.588151463797;16.534537364265;81019;7419719;Storvik Burmansgatan;60.588114974196;16.534591272872
Bussplan (Gävle kn);60.72832747727;17.109012579828;80112;7419509;Åbyggeby Utvandrarvägen;60.733269529861;17.12039436872
Byberg (Hudiksvall kn);61.74161719003;16.877909642338;84214;7406879;Byberg;61.741498480645;16.878113468437
Bybergs (Bollnäs kn);61.570718792335;16.493302237131;83380;7445836;Bybergs;61.570682267136;16.493338909123
Bybergsvägen (Hudiksvall kn);61.747801162695;16.873202761381;84215;7406880;Näsviken Bybergsvägen;61.747818506989;16.873222054115
Bygget (Nordanstig kn);62.011508921054;16.943041040987;32115;7418938;Älgered Bygget;62.011544954898;16.942965720309
Bygränsvägen (Gävle kn);60.728791251527;17.171567141599;80113;7419200;Hille Bygränsvägen;60.728809273875;17.171531125119
Byn (Nordanstig kn);62.052139606117;17.18850739933;32066;7418892;Byn;62.052112794095;17.188448502076
Byn (Söderhamn kn);61.278974912362;16.858525660994;82013;7419998;Brattberg Byn;61.279020396109;16.858396492945
Byvägen (Gävle kn);60.609579669957;16.900222038665;80010;7419114;Forsbacka Byvägen;60.609588059036;16.900258774207
Bålleberget (Nordanstig kn);61.970194441501;17.056903823245;32097;7418922;Bergsjö Bålleberg;61.970175337496;17.056979021388
Bålsövägen (Hudiksvall kn);61.725627722714;17.145123650017;84281;7406939;Hudiksvall Bålsövägen;61.725601109504;17.145046560722
Bångstorp (Sandviken kn);60.52805541028;16.776896875537;81313;7457357;Bångstorp;60.528054868791;16.77693324834
Båta (Ovanåker kn);61.352978076893;15.915855248593;21018;7418791;Böle Båta;61.352959645138;15.915911205726
Båthusvägen (Ljusdal kn);62.076162375656;15.825909005455;61210;7445837;Hälsingenybo Båthusvägen;62.076161838081;15.825908811962
Båtmanstorpet (Hudiksvall kn);61.713897589915;17.342005041624;84412;7407059;Båtmanstorpet;61.713933462768;17.341968718055
Bäck (Gävle kn);60.648574477252;16.993428624107;80115;7419202;Valbo Bäck;60.648380675949;16.992982640168
Bäck (Hudiksvall kn);61.723280150229;16.982271127827;84200;7406866;Sörforsa Bäck;61.72332456246;16.982272574184
Bäckan (Ljusdal kn);62.000365460069;15.840784493468;61039;7418978;Bäckan;62.000338022506;15.840746116569
Bäcken (Bollnäs kn);61.21378806725;16.609940447839;83204;7406539;Sibo Bäcken;61.21376917978;16.610032888701
Bäcken (Hofors kn);60.564010844484;16.366397840349;4011;7418706;Bäcken;60.563974267484;16.366488390312
Bäckens (Falun kn);60.699995481252;16.284061174703;91008;7408837;Jakobs;60.705069619595;16.270237357516
Bäckskogen (Hudiksvall kn);61.723567910295;16.963215245835;84204;7419828;Sörforsa Bäckskogen;61.723576755308;16.963177502645
Bäckänge (Ljusdal kn);61.819083557201;16.17255603292;61009;7418967;Bäckänge;61.819047174847;16.172555427354
Bäling (Nordanstig kn);62.020911350467;17.252224783398;32012;7418843;Bäling;62.020947361159;17.252168868629
Bästdal (Hudiksvall kn);61.820773177773;16.78592695417;84108;7406783;Bästdal;61.820799088265;16.786003438599
Bäverstigen (Bollnäs kn);61.3607744635;16.382696200541;83175;7406511;Bollnäs Bäverstigen;61.360755938295;16.382733138115
Böle (Bollnäs kn);61.29044737005;16.504477126733;83206;7406541;Böle;61.290455554589;16.504551805347
Böle (Hofors kn);60.531256266623;16.311243834626;4012;7418707;Hofors Böle;60.531255835021;16.31128028856
Böle (Söderhamn kn);61.176844027292;16.840790069108;82310;7406277;Böle Bölesbacken;61.176843083984;16.840864242377
Böle backe (Sandviken kn);60.656284589792;16.798197179252;81021;7419721;Böle Backe;60.656248670524;16.798159444046
Böleberget (Nordanstig kn);61.876364109515;17.043532329366;32080;7418905;Böleberget;61.876337419145;17.04345493567
Bölesbacken (Söderhamn kn);61.176844027292;16.840790069108;82311;7406277;Böle Bölesbacken;61.176843083984;16.840864242377
Bölevägen (Hofors kn);60.52902692307;16.316891569024;4013;7418708;Hofors Bölevägen;60.528990731598;16.316891030881
Bölevägen (Hudiksvall kn);61.750327361007;16.871472755043;84216;7406881;Näsviken Bölevägen;61.750345292929;16.871416342136
Bönakrysset (Gävle kn);60.699785187802;17.170263818623;80699;7435323;Gävle Bönakrysset;60.699829385502;17.170302193793
Bönan (Gävle kn);60.737527882777;17.308963280415;80116;7419203;Bönan;60.737571627695;17.309038514204
Bönans skola (Gävle kn);60.740543198178;17.308224131698;80117;7419204;Bönan skola;60.740542495783;17.308260623219
Campus Sätra (Gävle kn);60.690013234803;17.125146408432;80161;7419243;Gävle Campus Sätra;60.690048113157;17.125220948111
Celsiusskolan (Ovanåker kn);61.379387141862;15.80947798228;21019;7418792;Edsbyn Celsiusskolan;61.379655853619;15.81125497517
Centralgatan (Bollnäs kn);61.472415736779;16.377178577974;83048;7406368;Arbrå Centralgatan;61.472415614956;16.377103400289
Combigrillen (Bollnäs kn);61.357243444998;16.422539672356;83130;7406466;Bollnäs Combigrillen;61.357261227695;16.422483829089
COOP Extra (Bollnäs kn);61.369167744313;16.392593101154;83351;7406677;Bollnäs COOP Extra;61.369149296239;16.39261134192
Campus Sätra (Gävle kn);60.690013234803;17.125146408432;80161;7419243;Gävle Campus Sätra;60.690048113157;17.125220948111
Celsiusskolan (Ovanåker kn);61.379387141862;15.80947798228;21019;7418792;Edsbyn Celsiusskolan;61.379655853619;15.81125497517
Centralgatan (Bollnäs kn);61.472415736779;16.377178577974;83048;7406368;Arbrå Centralgatan;61.472415614956;16.377103400289
Combigrillen (Bollnäs kn);61.357243444998;16.422539672356;83130;7406466;Bollnäs Combigrillen;61.357261227695;16.422483829089
COOP Extra (Bollnäs kn);61.369167744313;16.392593101154;83351;7406677;Bollnäs COOP Extra;61.369149296239;16.39261134192
Daglösa (Söderhamn kn);61.383718282379;16.879163779222;82117;7406095;Daglösa vägskäl;61.383682284837;16.879124946902
Dalfors (Sandviken kn);60.655334347768;16.508608195753;81024;7423992;Dalfors;60.655297761078;16.508680521791
Damsveden (Hudiksvall kn);61.700643473032;17.07228863563;84052;7406728;Hudiksvall Dammsveden;61.700624742894;17.072325419045
Davids affär (Ljusdal kn);61.803644311868;15.720416773827;61083;7419015;Södra Veckebo Davids affär;61.803625902181;15.720492558438
Dellenbaden (Hudiksvall kn);61.856457631823;16.614007806882;84390;7406792;Norrbo;61.853111404548;16.634889122513
Dellengården (Hudiksvall kn);61.896341297877;16.552708492118;84140;7406811;Friggesund Dellengården;61.896385470655;16.552747381123
Delsbo forngård (Hudiksvall kn);61.820409029329;16.563842135314;84127;7406800;Delsbo forngård;61.820408765305;16.563803965402
Delsbo Kyrka (Hudiksvall kn);61.814238953453;16.569646704192;84125;7406798;Delsbo kyrka;61.814273949303;16.569723238013
Delsbo Torg (Hudiksvall kn);61.799392602304;16.554052747593;84230;7400331;Delsbo Torg;61.799553944725;16.55399957527
Depkens väg (Gävle kn);60.676479415055;17.266846272463;80479;7419547;Gävle Depkens väg;60.676461188264;17.266845314571
Dimgatan (Gävle kn);60.648614895448;17.130730431247;80120;7419206;Gävle Dimgatan;60.648615335108;17.130657211237
Djupa (Bollnäs kn);61.598218395689;16.301467496775;83003;7406331;Djupa (Undersvik);61.598253968308;16.301430246245
Djupdalshagen (Sandviken kn);60.755636513691;16.53435028952;81025;7419728;Djupdalshagen;60.755681061013;16.534351264583
Djuped (Hudiksvall kn);61.721920802794;17.141482447367;84285;7406943;Hudiksvall Djuped;61.721956247364;17.141483716885
Djuphamn (Gävle kn);60.735730695378;17.300299520051;80121;7419207;Bönan Djuphamn;60.735694109385;17.300334340495
Djupmurs (Sandviken kn);60.36634542828;16.775020690651;81026;7419729;Djupmurs;60.366327229929;16.77502013554
Djupmyra (Nordanstig kn);62.091538614255;16.771729572795;32120;7418943;Djupmyra;62.091546957588;16.77174869489
Djupvik (Söderhamn kn);61.281975103603;17.169865847773;82167;7406142;Källvik Djupvik;61.281991918228;17.169940974407
Djurkliniken (Sandviken kn);60.638778901955;16.791390620349;81027;7419730;Sandviken Djurkliniken;60.638618296485;16.791221181741
Doktorsvägen (Sandviken kn);60.290850128126;16.890026446846;81271;7419957;Gysinge Doktorsvägen;60.290850483441;16.889954109959
Daglösa (Söderhamn kn);61.383718282379;16.879163779222;82117;7406095;Daglösa vägskäl;61.383682284837;16.879124946902
Dalfors (Sandviken kn);60.655334347768;16.508608195753;81024;7423992;Dalfors;60.655297761078;16.508680521791
Damsveden (Hudiksvall kn);61.700643473032;17.07228863563;84052;7406728;Hudiksvall Dammsveden;61.700624742894;17.072325419045
Davids affär (Ljusdal kn);61.803644311868;15.720416773827;61083;7419015;Södra Veckebo Davids affär;61.803625902181;15.720492558438
Dellenbaden (Hudiksvall kn);61.856457631823;16.614007806882;84390;7406792;Norrbo;61.853111404548;16.634889122513
Dellengården (Hudiksvall kn);61.896341297877;16.552708492118;84140;7406811;Friggesund Dellengården;61.896385470655;16.552747381123
Delsbo forngård (Hudiksvall kn);61.820409029329;16.563842135314;84127;7406800;Delsbo forngård;61.820408765305;16.563803965402
Delsbo Kyrka (Hudiksvall kn);61.814238953453;16.569646704192;84125;7406798;Delsbo kyrka;61.814273949303;16.569723238013
Delsbo Torg (Hudiksvall kn);61.799392602304;16.554052747593;84230;7400331;Delsbo Torg;61.799553944725;16.55399957527
Depkens väg (Gävle kn);60.676479415055;17.266846272463;80479;7419547;Gävle Depkens väg;60.676461188264;17.266845314571
Dimgatan (Gävle kn);60.648614895448;17.130730431247;80120;7419206;Gävle Dimgatan;60.648615335108;17.130657211237
Djupa (Bollnäs kn);61.598218395689;16.301467496775;83003;7406331;Djupa (Undersvik);61.598253968308;16.301430246245
Djupdalshagen (Sandviken kn);60.755636513691;16.53435028952;81025;7419728;Djupdalshagen;60.755681061013;16.534351264583
Djuped (Hudiksvall kn);61.721920802794;17.141482447367;84285;7406943;Hudiksvall Djuped;61.721956247364;17.141483716885
Djuphamn (Gävle kn);60.735730695378;17.300299520051;80121;7419207;Bönan Djuphamn;60.735694109385;17.300334340495
Djupmurs (Sandviken kn);60.36634542828;16.775020690651;81026;7419729;Djupmurs;60.366327229929;16.77502013554
Djupmyra (Nordanstig kn);62.091538614255;16.771729572795;32120;7418943;Djupmyra;62.091546957588;16.77174869489
Djupvik (Söderhamn kn);61.281975103603;17.169865847773;82167;7406142;Källvik Djupvik;61.281991918228;17.169940974407
Djurkliniken (Sandviken kn);60.638778901955;16.791390620349;81027;7419730;Sandviken Djurkliniken;60.638618296485;16.791221181741
Doktorsvägen (Sandviken kn);60.290850128126;16.890026446846;81271;7419957;Gysinge Doktorsvägen;60.290850483441;16.889954109959
Domargränd (Gävle kn);60.668150822341;17.135740423379;80122;7419208;Gävle Domargränd;60.668133317351;17.135666415703
Domarringen (Gävle kn);60.662725750325;17.215099867832;80123;7419209;Gävle Domarringen;60.662742449687;17.215191929753
Dulsa (Ovanåker kn);61.345881904034;15.652556620794;21007;7418782;Dulsa;61.345917412492;15.652612493382
Duro (Gävle kn);60.669407945473;17.068908409041;80124;7419210;Gävle Duro;60.669407311596;17.068944871111
Duvberg (Ovanåker kn);61.367086306509;15.871815168697;21020;7418793;Duvberg;61.36707688066;15.871833803441
Dvästa (Nordanstig kn);61.969342700885;17.241144745789;32008;7423133;Dvästa E4 OKQ8;61.969369147156;17.241145676684
Ebomsbro (Söderhamn kn);61.334938558181;16.74490306268;82014;7419999;Överbo Ebomsbro;61.335230952655;16.744089730837
E-Center (Söderhamn kn);61.295178703077;17.019368835385;82195;7406168;Söderhamn E-Center;61.295271201107;17.01901773361
E-Center/Väg 50 (Söderhamn kn);61.296985184035;17.020091629337;82196;7406169;Söderhamn E-Center väg 50;61.296967520867;17.020016128743
Ede (Ljusdal kn);61.765497157131;16.157979551408;61146;7419062;Ede;61.765514812944;16.157903836292
Ede (Nordanstig kn);62.054157591669;16.84675634329;32118;7418941;Ede;62.054120498656;16.846850389413
Edeforsen (Ljusdal kn);61.770979379114;16.15465140288;61147;7419063;Edeforsen;61.770996599622;16.154746150776
Ede-gräns (Ljusdal kn);61.782001107019;16.139180714597;61148;7419064;Ede gräns;61.781982765383;16.139142456808
Edsbyn Centrum (Ovanåker kn);61.376057409048;15.818006277362;21037;7418543;Edsbyn Öjegård;61.376065937575;15.817987539632
Edsbyn Södra (Ovanåker kn);61.372728102758;15.818453859218;21021;7400590;Edsbyn busstation;61.372745526109;15.819295381285
Edsbyverken (Ovanåker kn);61.373063781196;15.846244209913;21022;7418529;Edsbyn Edsbyverken;61.373099236628;15.846225512734
Edsken (Hofors kn);60.542392742195;16.231812291623;4015;7418709;Edsken;60.542392385617;16.231830550039
Edsta (Hudiksvall kn);61.772805686636;17.001402417743;84094;7406769;Edsta;61.772787293897;17.001401448096
Edstuga (Bollnäs kn);61.331191899295;16.316372786767;83089;7406407;Edstuga;61.331227094187;16.316447969531
Edstuga Ö (Bollnäs kn);61.332369935592;16.322854355115;83090;7406408;Edstuga östra;61.332369659092;16.322816897811
Edsäter (Nordanstig kn);61.915798290905;17.257612603476;32043;7418869;Edsäter;61.915797231632;17.25766935414
Edvik (Söderhamn kn);61.356475275106;17.044491156503;82118;7406325;Edvik Edviksängarna;61.356519058862;17.044567464709
Edviksängarna (Söderhamn kn);61.356475275106;17.044491156503;82374;7406325;Edvik Edviksängarna;61.356519058862;17.044567464709
Ehrins (Bollnäs kn);61.35054800555;16.511347091354;83292;7406622;Ehrins;61.350547785965;16.511309583039
Ekens backe (Sandviken kn);60.607085208389;16.604433288529;81028;7419731;Kungsgården Ekens Backe;60.607194995528;16.604034310349
Ekvägen (Gävle kn);60.660378041702;17.121154391635;80125;7419211;Gävle Ekvägen;60.660378474004;17.121081144472
Ebomsbro (Söderhamn kn);61.334938558181;16.74490306268;82014;7419999;Överbo Ebomsbro;61.335230952655;16.744089730837
E-Center (Söderhamn kn);61.295178703077;17.019368835385;82195;7406168;Söderhamn E-Center;61.295271201107;17.01901773361
E-Center/Väg 50 (Söderhamn kn);61.296985184035;17.020091629337;82196;7406169;Söderhamn E-Center väg 50;61.296967520867;17.020016128743
Ede (Ljusdal kn);61.765497157131;16.157979551408;61146;7419062;Ede;61.765514812944;16.157903836292
Ede (Nordanstig kn);62.054157591669;16.84675634329;32118;7418941;Ede;62.054120498656;16.846850389413
Edeforsen (Ljusdal kn);61.770979379114;16.15465140288;61147;7419063;Edeforsen;61.770996599622;16.154746150776
Ede-gräns (Ljusdal kn);61.782001107019;16.139180714597;61148;7419064;Ede gräns;61.781982765383;16.139142456808
Edsbyn Centrum (Ovanåker kn);61.376057409048;15.818006277362;21037;7418543;Edsbyn Öjegård;61.376065937575;15.817987539632
Edsbyn Södra (Ovanåker kn);61.372728102758;15.818453859218;21021;7400590;Edsbyn busstation;61.372745526109;15.819295381285
Edsbyverken (Ovanåker kn);61.373063781196;15.846244209913;21022;7418529;Edsbyn Edsbyverken;61.373099236628;15.846225512734
Edsken (Hofors kn);60.542392742195;16.231812291623;4015;7418709;Edsken;60.542392385617;16.231830550039
Edsta (Hudiksvall kn);61.772805686636;17.001402417743;84094;7406769;Edsta;61.772787293897;17.001401448096
Edstuga (Bollnäs kn);61.331191899295;16.316372786767;83089;7406407;Edstuga;61.331227094187;16.316447969531
Edstuga Ö (Bollnäs kn);61.332369935592;16.322854355115;83090;7406408;Edstuga östra;61.332369659092;16.322816897811
Edsäter (Nordanstig kn);61.915798290905;17.257612603476;32043;7418869;Edsäter;61.915797231632;17.25766935414
Edvik (Söderhamn kn);61.356475275106;17.044491156503;82118;7406325;Edvik Edviksängarna;61.356519058862;17.044567464709
Edviksängarna (Söderhamn kn);61.356475275106;17.044491156503;82374;7406325;Edvik Edviksängarna;61.356519058862;17.044567464709
Ehrins (Bollnäs kn);61.35054800555;16.511347091354;83292;7406622;Ehrins;61.350547785965;16.511309583039
Ekens backe (Sandviken kn);60.607085208389;16.604433288529;81028;7419731;Kungsgården Ekens Backe;60.607194995528;16.604034310349
Ekvägen (Gävle kn);60.660378041702;17.121154391635;80125;7419211;Gävle Ekvägen;60.660378474004;17.121081144472
Elisabetgatan (Gävle kn);60.616182833101;16.890656398226;80013;7419117;Forsbacka Elisabetg;60.61621873489;16.890621008955
Ellervik (Söderhamn kn);61.267683031342;16.8412411209;82015;7406000;Bergvik Ellervik;61.267664697716;16.841240361154
Emböle (Söderhamn kn);61.326076685199;16.764769345459;82017;7406002;Emböle;61.326112438889;16.764732932434
Enbergsgatan (Ljusdal kn);61.826731449622;16.108751622612;61108;7419026;Ljusdal Enbergsgatan;61.826740053597;16.108694609821
Enen (Sandviken kn);60.617749065105;16.766750545168;81029;7419732;Sandviken Enen;60.617703250498;16.766840453761
Engelbrektsgatan (Gävle kn);60.677052714712;17.128714924918;80126;7419212;Gävle Engelbrektsgatan;60.677271373157;17.128357808938
Engelska kanalen (Söderhamn kn);61.309347096012;16.786301847098;82018;7406003;Mo Engelska kanalen;61.309356075665;16.78624597698
Engelska skolan (Gävle kn);60.663538610589;17.15534124625;80216;7419291;Gävle Engelska Skolan;60.663537588706;17.155414254597
Engeltofta (Gävle kn);60.706145829602;17.239399786387;80127;7419213;Norrlandet Engeltofta;60.70610926179;17.239434657835
Engesberg (Gävle kn);60.731347833105;17.287576303935;80128;7419214;Engesberg;60.731346529956;17.287667752637
Engesvik (Gävle kn);60.733142329132;17.294129917484;80129;7419215;Engesvik;60.733159574489;17.294167234374
Enoksnäs (Hudiksvall kn);61.669714919407;17.240028200677;84197;7406864;Enoksnäs;61.669714095188;17.240065662271
Enriset (Söderhamn kn);61.313767074218;17.049993711732;82197;7406170;Söderhamn Enriset;61.31374891392;17.049974132483
Enviken busstn (Falun kn);60.808165719334;15.758570146701;91018;7401045;Enviken busstation;60.808174353381;15.758625320892
Envägen (Ockelbo kn);60.89859785243;16.739348982782;1017;7417708;Ockelbo Envägen;60.898642381489;16.739350197685
Enånger kiosken (Hudiksvall kn);61.54745049483;17.005219231318;84026;7410294;Enånger kiosken;61.547495591514;17.005145515582
Enånger Oppänge (Hudiksvall kn);61.54938863463;17.000140156583;84029;7423132;Enånger E4 UnoX;61.549336026934;16.999949820405
Enångers bygdegård (Hudiksvall kn);61.543264975393;16.996369549371;84430;7417240;Enånger bygdegård;61.543264881865;16.996331714779
Enångers skola (Hudiksvall kn);61.544323073439;17.002634992121;84025;7418527;Enånger skola;61.544283965351;17.002952977193
Epa (Gävle kn);60.91759896791;17.103383796734;80130;7419216;Epa;60.917615875076;17.103458088102
Ericsson (Hudiksvall kn);61.723181263373;17.150257243709;84286;7406944;Hudiksvall Ericsson;61.723215039707;17.150428693658
Erik-Ers (Bollnäs kn);61.25322511988;16.4163848037;83208;7406543;Erik-Ers;61.253188990647;16.416346745426
Erik-Lars (Hudiksvall kn);61.727730719562;17.091353508406;84287;7406945;Hudiksvall Erik-Lars;61.727729746448;17.091409964446
Eriksberg (Gävle kn);60.671312763682;17.177346854024;80480;7419548;Gävle Eriksberg;60.67130369322;17.177328054792
Eriksgatan (Söderhamn kn);61.30406682127;17.111961828483;82244;7406214;Söderhamn Eriksgatan;61.304102681989;17.111925795307
Erikslund (Hofors kn);60.547373838464;16.47506829389;4016;7418710;Erikslund;60.547409809723;16.474996147004
Erkas (Falun kn);60.694933644933;16.298942642641;91007;7408835;Erkas;60.694915106105;16.299015595726
Erk-Pers (Bollnäs kn);61.572223815762;16.53030178978;83381;7445845;Erk-Pers;61.572196653644;16.530263345836
Erks (Falun kn);60.712295480489;16.240522236602;91012;7408840;Erks;60.712259375623;16.240485132748
Ersbo (Gävle kn);60.470795292452;16.942293190459;80518;7419585;Ersbo;60.470830768791;16.942312557436
Ersk-Jons (Bollnäs kn);61.530368582013;16.368580235663;83004;7406332;Vallstabyn Ersk-Jons;61.530332245182;16.368579439739
Ersk-Ols (Bollnäs kn);61.52823653569;16.36767713959;83005;7406333;Vallstabyn Ersk-Ols;61.528272293258;16.367602465664
Eskövägen (Gävle kn);60.795021841478;17.207554891958;80135;7419221;Eskön vägskäl;60.795037182147;17.207775818362
Estraden (Gävle kn);60.686256600196;17.127445348348;80142;7419227;Gävle Estraden;60.686256310524;17.12744522401
Fagersta backe (Hofors kn);60.526113243808;16.350172495737;4017;7418711;Fagersta backe;60.526077054177;16.350171915905
Fagersta by (Hofors kn);60.525268043187;16.332639435079;4018;7418712;Fagersta by;60.525249658453;16.332675588308
Fagervik (Gävle kn);60.889412345521;17.121285750769;80137;7419222;Fagervik;60.889438939846;17.121286705337
Faktorsgatan (Hofors kn);60.570796788929;16.267527674332;4019;7418713;Hofors Faktorsgatan;60.570814247336;16.267582665424
Falun jvstn (Falun kn);60.60341494479;15.64184296584;91048;7400030;Falun Centralstation;60.603288698452;15.641624679547
Faluvägen (Hofors kn);60.541370570862;16.284581723018;4020;7418714;Hofors Faluvägen;60.541405911704;16.284655158857
Faxeholmen (Söderhamn kn);61.305295153195;17.07035590957;82200;7406173;Söderhamn Faxeholmen;61.306340329547;17.074690522992
Faxepark (Söderhamn kn);61.303863174052;17.065091414658;82384;7430132;Söderhamn Faxepark;61.303827074457;17.065071113269
Fegärde (Hudiksvall kn);61.611382183624;17.050775277569;84035;7406714;Njutånger Fegärde;61.611345870121;17.050773583666
Fejan (Söderhamn kn);61.207721881437;17.098481599035;82006;7419992;Ljusne Fejan;61.20774878057;17.098445307418
Finahuset (Hudiksvall kn);61.724456073328;17.146548325571;84426;7457272;Hudiksvall Finahuset;61.724423816767;17.146130491646
Finflo (Hudiksvall kn);61.759138624529;17.076244018522;84086;7406761;Finflo;61.759102294546;17.076242259161
Finnbacken (Ockelbo kn);60.899179689396;16.760056786203;1018;7417709;Ockelbo Finnbacken;60.899215637268;16.76000249678
Finnböle (Gävle kn);60.446261360288;17.15184531198;80014;7410328;Finnböle;60.44634716813;17.152212155364
Finntä (Gävle kn);60.665447104368;17.027560124213;80138;7419223;Finntä;60.665482038132;17.027634519695
Fiskar Normans väg (Gävle kn);60.751550804941;17.347550243131;80345;7419419;Utvalnäs Fiskar Normans väg;60.751587240446;17.3474784686
Fiskeby (Hudiksvall kn);61.741921494582;17.168335824262;84167;7406837;Fiskeby;61.741885734818;17.168277192254
Fiskebyvägen (Hudiksvall kn);61.727625213849;17.135372609226;84288;7406946;Hudiksvall Fiskebyvägen;61.727670361639;17.135298615163
Fiskra (Ovanåker kn);61.356400120843;15.942315596497;21042;7418797;Fiskra;61.356435614949;15.942278316764
Fiskvik (Nordanstig kn);62.007954630457;17.024124781757;32108;7418931;Fiskvik;62.007980730255;17.024163711796
Fagersta backe (Hofors kn);60.526113243808;16.350172495737;4017;7418711;Fagersta backe;60.526077054177;16.350171915905
Fagersta by (Hofors kn);60.525268043187;16.332639435079;4018;7418712;Fagersta by;60.525249658453;16.332675588308
Fagervik (Gävle kn);60.889412345521;17.121285750769;80137;7419222;Fagervik;60.889438939846;17.121286705337
Faktorsgatan (Hofors kn);60.570796788929;16.267527674332;4019;7418713;Hofors Faktorsgatan;60.570814247336;16.267582665424
Falun jvstn (Falun kn);60.60341494479;15.64184296584;91048;7400030;Falun Centralstation;60.603288698452;15.641624679547
Faluvägen (Hofors kn);60.541370570862;16.284581723018;4020;7418714;Hofors Faluvägen;60.541405911704;16.284655158857
Faxeholmen (Söderhamn kn);61.305295153195;17.07035590957;82200;7406173;Söderhamn Faxeholmen;61.306340329547;17.074690522992
Faxepark (Söderhamn kn);61.303863174052;17.065091414658;82384;7430132;Söderhamn Faxepark;61.303827074457;17.065071113269
Fegärde (Hudiksvall kn);61.611382183624;17.050775277569;84035;7406714;Njutånger Fegärde;61.611345870121;17.050773583666
Fejan (Söderhamn kn);61.207721881437;17.098481599035;82006;7419992;Ljusne Fejan;61.20774878057;17.098445307418
Finahuset (Hudiksvall kn);61.724456073328;17.146548325571;84426;7457272;Hudiksvall Finahuset;61.724423816767;17.146130491646
Finflo (Hudiksvall kn);61.759138624529;17.076244018522;84086;7406761;Finflo;61.759102294546;17.076242259161
Finnbacken (Ockelbo kn);60.899179689396;16.760056786203;1018;7417709;Ockelbo Finnbacken;60.899215637268;16.76000249678
Finnböle (Gävle kn);60.446261360288;17.15184531198;80014;7410328;Finnböle;60.44634716813;17.152212155364
Finntä (Gävle kn);60.665447104368;17.027560124213;80138;7419223;Finntä;60.665482038132;17.027634519695
Fiskar Normans väg (Gävle kn);60.751550804941;17.347550243131;80345;7419419;Utvalnäs Fiskar Normans väg;60.751587240446;17.3474784686
Fiskeby (Hudiksvall kn);61.741921494582;17.168335824262;84167;7406837;Fiskeby;61.741885734818;17.168277192254
Fiskebyvägen (Hudiksvall kn);61.727625213849;17.135372609226;84288;7406946;Hudiksvall Fiskebyvägen;61.727670361639;17.135298615163
Fiskra (Ovanåker kn);61.356400120843;15.942315596497;21042;7418797;Fiskra;61.356435614949;15.942278316764
Fiskvik (Nordanstig kn);62.007954630457;17.024124781757;32108;7418931;Fiskvik;62.007980730255;17.024163711796
Fjälevägen (Bollnäs kn);61.319952026251;16.211059187122;83091;7406409;Sörbo (Söräng) Fjälevägen;61.319915432338;16.211151984463
Fjällbackens köpcentrum (Gävle kn);60.669338224684;17.184324570399;80663;7419699;Gävle Fjällbackens köpcentrum;60.668893977839;17.184726231869
Fjärran Höjder (Gävle kn);60.66714972956;17.131692954289;80263;7419338;Gävle Fjärran Höjder;60.667184427408;17.131785735782
Flaggbacken (Ockelbo kn);60.900648582239;16.754130806596;1135;7418689;Ockelbo Flaggbacken;60.900692981599;16.754150461385
Flaten (Gävle kn);60.471040148463;17.167344457629;80015;7419118;Flaten;60.471057097585;17.167417809663
Flatsjön (Gävle kn);60.481503165978;17.16590935238;80016;7419119;Flatsjön;60.481485521508;17.16585395826
Fliskär (Gävle kn);60.679137373352;17.216494384374;80481;7419549;Gävle Fliskär;60.679155417036;17.216458448731
Flisvägen (Söderhamn kn);61.253530457662;17.174521334785;82265;7406234;Sandarne Flisvägen;61.253494573273;17.17448230916
Flor (Söderhamn kn);61.303185465413;16.798127426564;82019;7406005;Florsjö;61.303166716134;16.798182661895
Florellvägen (Sandviken kn);60.722896872426;16.586801136983;81032;7419735;Järbo Florellvägen;60.722896877454;16.586746130411
Florsjö (Söderhamn kn);61.303185465413;16.798127426564;82020;7406005;Florsjö;61.303166716134;16.798182661895
Florsjöbaden (Söderhamn kn);61.305566837904;16.792771797566;82021;7406006;Florsjöbaden;61.305630062675;16.792661651357
Fly (Söderhamn kn);61.373119083756;16.896119816255;82119;7406097;Fly;61.373136326692;16.89615764253
Flygbacken (Söderhamn kn);61.291287555908;17.072982415874;82201;7406174;Söderhamn Flygbacken;61.291278374541;17.072963199482
Flygfältet (Söderhamn kn);61.287343329816;16.841664620579;82022;7406007;Mohed Flygfältet;61.287226012433;16.841697900094
Flygstaden (Söderhamn kn);61.278210262579;17.094030572405;82266;7406235;Söderhamn Flygstaden;61.278336899086;17.093886386954
Flyktbackavägen (Sandviken kn);60.606373196051;16.594337808214;81033;7419736;Kungsgården Flyktbackavägen;60.606354952255;16.594337342011
Fläddran (Falun kn);60.705925279971;15.753575903206;91062;7447920;Fläddran;60.705951889471;15.753649201555
Fläsbro (Hudiksvall kn);61.760293020415;17.122312293412;84067;7406742;Hudiksvall Fläsbro;61.760283605256;17.1223116238
Flästa (Bollnäs kn);61.460163274889;16.421214042387;83049;7410354;Flästa;61.460199073332;16.421139597924
Flästa Öjungsvägen (Bollnäs kn);61.446242731848;16.485856653731;83083;7406401;Flästa Öjungsvägen;61.446250996521;16.485912932097
Flösta (Gävle kn);60.363161888124;17.005017050907;80532;7419598;Flösta;60.363197049059;17.00507265871
Folkets Hus (Hudiksvall kn);61.719983748449;16.974201932952;84202;7406868;Sörforsa Folkets Hus;61.719983303731;16.974201671666
Folkhögskolan-Forsavägen (Hudiksvall kn);61.728149139022;16.96376537513;84205;7419826;Sörforsa Folkhögskolan Forsav;61.727969582895;16.963720558841
Folkhögskolan-väg 84 (Hudiksvall kn);61.729081559223;16.964935485138;84206;7419827;Sörforsa Folkhögskolan väg 84;61.728945262639;16.965081472579
Forneby (Bollnäs kn);61.466271427659;16.419908836407;83050;7406369;Forneby;61.466306717914;16.419946911862
Fors (Hudiksvall kn);61.744354850149;17.087162669058;84145;7406816;Hudiksvall Fors;61.744192751307;17.087174603037
Fors industriområde (Hudiksvall kn);61.740526651003;17.087703943789;84144;7406815;Hudiksvall Fors industri;61.740507558803;17.08777859534
Forsa kyrka (Hudiksvall kn);61.734317821398;16.936465268896;84208;7406870;Forsa kyrka;61.734298962751;16.93652110144
Forsadalen (Hudiksvall kn);61.782002177997;16.856820163205;84102;7406777;Forsadalen;61.782046869762;16.856783544758
Forsavägen (Hudiksvall kn);61.640878602969;17.076504237642;84042;7406720;Iggesund Forsavägen;61.640905260596;17.076486221592
Forsbacka (Söderhamn kn);61.314998250998;17.091282780096;82168;7406143;Forsbacka;61.314979921419;17.091281832718
Forsbacka Konsum (Gävle kn);60.613991602282;16.890802012759;80017;7410362;Forsbacka Konsum;60.613973961427;16.890728305123
Forsbacka Ringvägen (Gävle kn);60.618761081401;16.885939276849;80047;7418552;Forsbacka Ringvägen;60.618952030083;16.885598556953
Forsbacka V (Söderhamn kn);61.319879202083;17.083827014683;82169;7406144;Forsbacka västra;61.319896757926;17.083827532454
Forsbackabron (Söderhamn kn);61.316277573389;17.086966358712;82397;7445022;Söderhamn Forsbackabron;61.316276482809;17.087040797652
Forsbro (Bollnäs kn);61.475185326441;16.394847810044;83051;7406370;Forsbro;61.475212053199;16.394791892456
Forsby (Gävle kn);60.71394640927;17.142926318725;80143;7418553;Forsby;60.713928719099;17.142870506156
Forsbyvägen (Gävle kn);60.700423407887;17.152418227541;80144;7418554;Gävle Forsbyvägen;60.700459373322;17.152382988821
Forsgården (Söderhamn kn);61.365900900887;16.944635672431;82120;7406098;Kungsgården Forsgården;61.365917820072;16.944710898136
Forsnäsetvägen (Ljusdal kn);61.82761601128;16.036626929641;61280;7419011;Borr;61.82902884827;16.03925636903
Framnäs väg 83 (Bollnäs kn);61.370174929421;16.392107048307;83375;7407139;Bollnäs Framnäs väg 83;61.370138776242;16.392068858298
Fredriksfors (Hudiksvall kn);61.786293401849;16.616904406284;84226;7410372;Fredriksfors;61.786274542879;16.616979505978
Freluga (Bollnäs kn);61.326923540955;16.29845083051;83092;7406410;Freluga;61.326896201772;16.298450308241
Freluga gård (Bollnäs kn);61.325425690665;16.290733928231;83088;7406406;Freluga gård;61.325398218199;16.29077075857
Fridsbacka (Söderhamn kn);61.311673215617;17.104941858381;82170;7406145;Fridsbacka;61.311708537916;17.104961788386
Friggesund (Hudiksvall kn);61.89792708726;16.546526999451;84137;7410378;Friggesund;61.897944651159;16.546508173656
Friggesunds skola (Hudiksvall kn);61.897695901559;16.554434418533;84141;7406812;Friggesund skola;61.897722025777;16.554491892291
Frimodigs (Sandviken kn);60.689774289402;16.641149522276;81035;7419738;Frimodigs;60.689809420586;16.641223609824
Friskis o Svettis (Hudiksvall kn);61.745188803506;17.116689148446;84340;7406997;Hudiksvall Friskis & Svettis;61.745177105263;17.11598800107
Fromskroken (Bollnäs kn);61.352579333393;16.583218379546;83294;7406624;Åkre Fromskroken;61.352757847967;16.583316119048
Fruns hage (Gävle kn);60.668454837548;17.155601835475;80146;7419229;Gävle Fruns Hage;60.668472311896;17.155620746561
Frälsningsarmén (Gävle kn);60.917461064978;17.032859819433;80147;7419230;Hagsta Frälsningsarmén;60.917469875886;17.032841590834
Främlingshem (Gävle kn);60.501112142008;16.938494840961;80515;7419582;Främlingshem;60.501112183995;16.938458386516
Frästa (Nordanstig kn);62.048949843046;17.234762916845;32070;7418896;Gnarp Frästa;62.048949370141;17.234762571939
Fröste (Bollnäs kn);61.398596301586;16.313727922037;83348;7406675;Fröste;61.398631487641;16.313803252499
Funsta (Hudiksvall kn);61.73989667159;16.896945420641;84212;7406877;Funsta;61.739919879762;16.896226841983
Furulund (Hofors kn);60.541803494277;16.247455579277;4022;7418716;Furulund;60.54180307605;16.247492054124
Furulund (Hudiksvall kn);61.735469102125;17.094930687199;84143;7406814;Hudiksvall Furulund;61.735504366225;17.094950823096
Furumovägen (Gävle kn);60.697059122732;17.145978897911;80149;7419232;Gävle Furumovägen;60.697022577168;17.146013881081
Fyrbovägen (Gävle kn);60.677433658888;17.090485951968;80152;7419234;Gävle Fyrbovägen;60.677460286644;17.090486907245
Fyrs (Ljusdal kn);61.901034808343;15.898273725565;61036;7418976;Fyrs;61.901070186905;15.89827367226
Fålnäs (Söderhamn kn);61.306850327398;17.089232228966;82202;7406175;Söderhamn Fålnäs;61.306831646366;17.089268599007
Fällene (Bollnäs kn);61.308681655494;16.455908919839;83210;7406545;Fällene;61.308645531285;16.455870733854
Fältspatvägen (Gävle kn);60.685947909374;17.107628065166;80153;7419235;Gävle Fältspatvägen;60.685911374122;17.10766308729
Färghuset (Söderhamn kn);61.301393106969;17.036907542469;82376;7406327;Söderhamn Färghuset;61.301392044321;17.03698195696
Färila bstn (Ljusdal kn);61.798238544394;15.838661724465;61058;7400460;Färila busstation;61.798264968946;15.838623704148
Färila Idrottspark (Ljusdal kn);61.800415740984;15.889250873247;61054;7418989;Ygskorset;61.801201449276;15.894751568961
Färila kyrka (Ljusdal kn);61.801368128083;15.846477021864;61056;7418993;Färila kyrka;61.801403539049;15.846401092135
Föreningshuset (Gävle kn);60.685436411274;17.238698125743;80482;7419550;Gävle Föreningshuset;60.685472013164;17.238699579718
Förläggningen (Gävle kn);60.753265109524;17.349907020309;80154;7419236;Utvalnäs Förläggningen;60.753264395123;17.349943517297
Gamla apoteket (Ockelbo kn);60.896404465271;16.720235606928;1045;7418619;Ockelbo Gamla apoteket;60.896439520645;16.720310218787
Gamla brandstationen Enviken (Falun kn);60.804296540964;15.755416481926;91019;7408819;Enviken Gamla brandstationen;60.80431416524;15.755508372977
Gamla Bönavägen (Gävle kn);60.704398975944;17.16051457854;80155;7419237;Gävle Gamla Bönavägen;60.704325982415;17.160602959774
Gamla IP (Söderhamn kn);61.305713092056;17.048405616699;82205;7406178;Söderhamn Gamla IP;61.305684595661;17.048534944713
Gamla korset (Söderhamn kn);61.291030528582;16.867416981061;82024;7406009;Korset Gamla korset;61.291066318308;16.867380717351
Gamla Ockelbovägen (Gävle kn);60.914137345472;17.034151517232;80157;7419239;Hagsta Gamla Ockelbovägen;60.914136680619;17.034188229006
Gamla Sibovägen (Bollnäs kn);61.215155088164;16.603369244726;83272;7406602;Gamla Sibovägen;61.215154698028;16.603369118942
Gammel-Anna (Gävle kn);60.757932133464;17.332702925981;80378;7419452;Tångberget Gammel-Anna;60.757949365218;17.33274028328
Gammelhammarvägen (Sandviken kn);60.632779744812;16.566149017064;81038;7419741;Åshammar Gammelhammarvägen;60.632815546958;16.566113294611
Gammel-Homna (Ovanåker kn);61.347483979472;15.674131247914;21112;7418782;Dulsa;61.345917412492;15.652612493382
Gammelstigen (Gävle kn);60.698766710854;17.167144394154;80158;7419240;Gävle Gammelstigen;60.698784364865;17.167145020147
Gammelsågen (Söderhamn kn);61.243509912385;17.149796021186;82378;7406236;Gammelsågen södra;61.243509169387;17.149833049196
Gammelsågen S (Söderhamn kn);61.243509912385;17.149796021186;82267;7406236;Gammelsågen södra;61.243509169387;17.149833049196
Gammsätter (Nordanstig kn);62.026353824351;17.090232429866;32055;7418881;Gammsätter;62.026317466116;17.090230592422
Garntjänst (Bollnäs kn);61.228489521448;16.559697358068;83213;7406548;Kilafors Garntjänst;61.228506660268;16.559772121215
Garvarbäcken (Ljusdal kn);61.631091211335;16.288226946179;61221;7435457;Garvarbäcken;61.631054990465;16.28818852012
Garvars (Bollnäs kn);61.388513365049;16.403452381487;83352;7465093;Garvars;61.3884860221;16.4034517415
Gasklockorna (Gävle kn);60.677897386616;17.176840100016;80678;7410279;Gävle Gasklockorna;60.677944942442;17.177427584658
Gavelhyttan (Sandviken kn);60.556526196768;16.597098724843;81039;7419742;Gavelhyttan;60.55652569326;16.597135155733
Gavelstigen (Sandviken kn);60.515679676447;16.736326896571;81040;7419743;Årsunda Gavelstigen;60.51568837397;16.73632711594
Gamla apoteket (Ockelbo kn);60.896404465271;16.720235606928;1045;7418619;Ockelbo Gamla apoteket;60.896439520645;16.720310218787
Gamla brandstationen Enviken (Falun kn);60.804296540964;15.755416481926;91019;7408819;Enviken Gamla brandstationen;60.80431416524;15.755508372977
Gamla Bönavägen (Gävle kn);60.704398975944;17.16051457854;80155;7419237;Gävle Gamla Bönavägen;60.704325982415;17.160602959774
Gamla IP (Söderhamn kn);61.305713092056;17.048405616699;82205;7406178;Söderhamn Gamla IP;61.305684595661;17.048534944713
Gamla korset (Söderhamn kn);61.291030528582;16.867416981061;82024;7406009;Korset Gamla korset;61.291066318308;16.867380717351
Gamla Ockelbovägen (Gävle kn);60.914137345472;17.034151517232;80157;7419239;Hagsta Gamla Ockelbovägen;60.914136680619;17.034188229006
Gamla Sibovägen (Bollnäs kn);61.215155088164;16.603369244726;83272;7406602;Gamla Sibovägen;61.215154698028;16.603369118942
Gammel-Anna (Gävle kn);60.757932133464;17.332702925981;80378;7419452;Tångberget Gammel-Anna;60.757949365218;17.33274028328
Gammelhammarvägen (Sandviken kn);60.632779744812;16.566149017064;81038;7419741;Åshammar Gammelhammarvägen;60.632815546958;16.566113294611
Gammel-Homna (Ovanåker kn);61.347483979472;15.674131247914;21112;7418782;Dulsa;61.345917412492;15.652612493382
Gammelstigen (Gävle kn);60.698766710854;17.167144394154;80158;7419240;Gävle Gammelstigen;60.698784364865;17.167145020147
Gammelsågen (Söderhamn kn);61.243509912385;17.149796021186;82378;7406236;Gammelsågen södra;61.243509169387;17.149833049196
Gammelsågen S (Söderhamn kn);61.243509912385;17.149796021186;82267;7406236;Gammelsågen södra;61.243509169387;17.149833049196
Gammsätter (Nordanstig kn);62.026353824351;17.090232429866;32055;7418881;Gammsätter;62.026317466116;17.090230592422
Garntjänst (Bollnäs kn);61.228489521448;16.559697358068;83213;7406548;Kilafors Garntjänst;61.228506660268;16.559772121215
Garvarbäcken (Ljusdal kn);61.631091211335;16.288226946179;61221;7435457;Garvarbäcken;61.631054990465;16.28818852012
Garvars (Bollnäs kn);61.388513365049;16.403452381487;83352;7465093;Garvars;61.3884860221;16.4034517415
Gasklockorna (Gävle kn);60.677897386616;17.176840100016;80678;7410279;Gävle Gasklockorna;60.677944942442;17.177427584658
Gavelhyttan (Sandviken kn);60.556526196768;16.597098724843;81039;7419742;Gavelhyttan;60.55652569326;16.597135155733
Gavelstigen (Sandviken kn);60.515679676447;16.736326896571;81040;7419743;Årsunda Gavelstigen;60.51568837397;16.73632711594
Gavlestadion (Gävle kn);60.692574124754;17.133050275828;80686;7419242;Gävle Läkerol arena;60.690583980066;17.134579152957
Gefle Forum (Gävle kn);60.659241061928;17.13449529427;80081;7419172;Gävle Gefle Forum;60.659257996028;17.134569036407
Geodetgatan (Gävle kn);60.640788251917;17.145123199835;80033;7463714;Gävle Geodetgatan;60.640931344081;17.145147304737
Getbacken (Söderhamn kn);61.319020101655;16.777772635943;82368;7406321;Mo Getbacken;61.319019703154;16.777772467482
Gia (Hudiksvall kn);61.797049723125;17.029439091524;84156;7406827;Gia;61.797040131109;17.029457408207
Gillerhedsvägen (Sandviken kn);60.508083709644;16.803821319675;81318;7457369;Gillerhedsvägen;60.508110357748;16.803822099669
Glada Hudikskolan (Hudiksvall kn);61.776875504662;17.124442115391;84421;7406745;Järvsöfaks väg;61.776540855934;17.120922020131
Glamsen (Gävle kn);60.571640115683;17.128546279056;80020;7419122;Glamsen;60.571621358304;17.128600133289
Glamsta (Söderhamn kn);61.393560335883;16.843680082547;82121;7419726;Glamsta;61.393559644076;16.843717313539
Glasmästarvägen (Sandviken kn);60.613913339253;16.754620319808;81042;7419745;Sandviken Glasmästarvägen;60.61366140008;16.754667664596
Glimsta (Hudiksvall kn);61.766181826799;16.976502239146;84098;7406773;Glimsta;61.766181215053;16.976520905506
Glysis (Hudiksvall kn);61.735771245048;17.10760313701;84289;7406947;Hudiksvall Glysis;61.735833241054;17.107643337525
Gläntan (Sandviken kn);60.704935234465;16.812112249235;81043;7419746;Gläntan;60.704970823719;16.812113292881
Glössbo (Bollnäs kn);61.351068354981;16.700568495305;83297;7410440;Glössbo;61.351049511897;16.700642564497
Gnarp jvstn (Nordanstig kn);62.055383325528;17.246978257717;32131;7400602;Gnarp station;62.055707534384;17.244239598018
Gnarp Vallen (Nordanstig kn);62.05468312027;17.240959876756;32022;7410441;Gnarp Vallen;62.054628826663;17.240956993118
Gnarps kyrka (Nordanstig kn);62.046693097979;17.255838813631;32016;7418846;Gnarp kyrka;62.046665315002;17.255875400715
Golfbanan (Gävle kn);60.699369507124;17.178449793669;80162;7419244;Gävle Golfbanan;60.699386411665;17.178523638551
Gramre (Ockelbo kn);60.829718843573;16.697668041803;1049;7418623;Gramre;60.829727733049;16.697631450683
Granberg (Bollnäs kn);61.331619092001;16.386605655991;83135;7406471;Bollnäs Granberg;61.331303491946;16.386861190213
Granbergsbacken (Bollnäs kn);61.333441424511;16.390655189731;83133;7406469;Bollnäs Granbergsbacken;61.333439482424;16.391009933421
Granbergshöjden (Bollnäs kn);61.330557203086;16.38729572409;83388;7410613;Bollnäs Granbergshöjden;61.330584026959;16.387221408543
Granbergsskolan (Bollnäs kn);61.333625650813;16.383243311315;83394;7450858;Bollnäs Granbergsskolan;61.333922465403;16.382987164476
Granbo (Bollnäs kn);61.275139736332;16.526342098175;83214;7406549;Granbo;61.27517493045;16.526398720427
Graneberg (Gävle kn);60.673432198244;17.266415437123;80483;7419551;Gävle Graneberg;60.673414769406;17.266341327419
Granskär (Söderhamn kn);61.309901411351;17.073023947025;82398;7445023;Söderhamn Granskär;61.309946405372;17.072969569652
Granudden (Gävle kn);60.684085621082;17.234062287653;80484;7419552;Gävle Granudden;60.684085335499;17.234062146957
Granvik (Gävle kn);60.716606396295;17.256611689496;80164;7419246;Norrlandet Granvik;60.716606502577;17.256574914989
Grengatan (Söderhamn kn);61.308470479464;17.058929906192;82377;7406328;Söderhamn Grengatan;61.308373296885;17.058720520134
Grimbo (Hudiksvall kn);61.535592744352;16.97652280385;84024;7406707;Grimbo;61.535628532339;16.976486332219
Grindberget (Hofors kn);60.510935113033;16.420782112695;4114;7416950;Grindberget;60.510962000946;16.420728031269
Grips väg (Bollnäs kn);61.358087886955;16.372814310603;83136;7406472;Bollnäs Grips väg;61.358105569282;16.372777135452
Grubban (Gävle kn);60.747120304513;17.325183673966;80168;7419250;Grubban;60.747083296097;17.325255132044
Grubbe (Söderhamn kn);61.445214525859;16.725364905378;82123;7406099;Grubbe;61.445204502946;16.725458169936
Grundvik (Söderhamn kn);61.29565244912;17.118963331275;82206;7406179;Söderhamn Grundvik;61.295687231225;17.119039218291
Grusåsgatan (Sandviken kn);60.609583493195;16.743683797316;81044;7419747;Sandviken Grusåsgatan;60.609609483211;16.743775803
Gryttje (Nordanstig kn);62.06791181616;17.284359739472;32025;7418854;Gryttje;62.067995343193;17.284057376956
Gryttjen (Hudiksvall kn);61.802089745602;16.300915482928;84243;7406905;Gryttjen;61.802044398864;16.300914570797
Gryttjesbo (Ljusdal kn);61.805113359867;16.270166812368;61002;7418960;Gryttjesbo;61.805022890554;16.270241122937
Gråsala (Falun kn);60.718578065186;15.778580002521;91020;7408809;Gråsala;60.71861361177;15.778543417958
Gråsten (Gävle kn);60.761363835329;17.326132469438;80170;7419252;Harkskär Gråsten;60.761345805561;17.326113116362
Gråstensvägen (Gävle kn);60.692331383082;17.123081057951;80171;7419253;Gävle Gråstensvägen;60.692312787988;17.123116799794
Grååsen (Gävle kn);60.529842130245;17.142597871773;80021;7419123;Grååsen;60.529833258099;17.142560981821
Gräftgränd (Nordanstig kn);62.052280655876;17.244154500466;32020;7418850;Gnarp Gräftgränd;62.052262839536;17.2440959728
Grängsjö (Nordanstig kn);62.042685083772;17.119056800305;32060;7418886;Grängsjö;62.042649088511;17.119016709629
Gränsfors (Nordanstig kn);62.03389292268;17.098805036971;32057;7418883;Gränsfors;62.033865892255;17.098765365715
Gräsharen (Gävle kn);60.892560568164;17.108593643922;80172;7419254;Gräsharen;60.892525069861;17.108518370439
Gräsheden (Nordanstig kn);61.36076560929;15.719146567176;21111;7463027;Gräsheden;61.360783071755;15.719090415339
Gräsmaln (Hudiksvall kn);61.724681890774;17.160102652114;84290;7406978;Hudiksvall Maltäktsvägen;61.722101596745;17.163242643927
Gräsuddsvägen (Söderhamn kn);61.301182179666;17.101093099516;82392;7415121;Söderhamn Gräsuddsvägen;61.301154169371;17.101166392909
Gröndal (Gävle kn);60.72005457682;17.261457999955;80173;7419255;Norrlandet Gröndal;60.720053888897;17.261494479171
Gröndalstäkten (Gävle kn);60.722601018144;17.265018320957;80353;7419427;Gröndalstäkten;60.722617873833;17.265092248069
Grönstavägen (Bollnäs kn);61.318285740514;16.221996390973;83093;7406411;Sörbo (Söräng) Grönstavägen;61.318267486906;16.221958729663
Gröntuvan (Nordanstig kn);62.004383896633;16.983684107469;32112;7418935;Gröntuvan;62.004382930988;16.98374104713
Gubberg (Bollnäs kn);61.28600945368;16.514039408758;83271;7406601;Gubberg;61.286009438528;16.513964691714
Guldsmeden (Gävle kn);60.655758964251;17.048405420164;80022;7419124;Valbo Guldsmeden;60.655775943513;17.048479122882
Gustavsgatan (Gävle kn);60.668736881864;17.139990509681;80177;7419259;Gävle Gustavsgatan;60.668717740282;17.140081076044
Gyltan (Sandviken kn);60.565828644664;16.488906077742;81045;7419748;Gyltan;60.565828537764;16.488869607838
Gymnasiet (Ljusdal kn);61.830231366511;16.116643432364;61109;7419027;Ljusdal Gymnasiet;61.830222198971;16.116510317706
Gysinge brukshandel (Sandviken kn);60.289693271787;16.885485994833;81269;7400483;Gysinge Brukshandel;60.289719224143;16.88557723377
Gysingestigen (Sandviken kn);60.298648459861;16.820907383808;81046;7419749;Österfärnebo Gysingestigen;60.298665893262;16.820944082894
Gåsholmavägen (Gävle kn);61.003885632977;17.126016938524;80003;7419108;Axmar Gåsholmavägen;61.003831462456;17.126014533429
Gåsjön (Bollnäs kn);61.350175803333;16.613752163793;83299;7406628;Berga Gåsjön;61.350157670205;16.613714179883
Gäddvik (Ovanåker kn);61.373973730586;16.145944419551;21043;7418798;Gäddvik;61.373937217402;16.146018750207
Gällsta Livs (Nordanstig kn);62.040007375764;17.315306432626;32049;7418875;Gällsta Livs;62.039829383089;17.315947130841
Gällsta V (Nordanstig kn);62.042615740555;17.282386153249;32047;7418873;Gällsta västra;62.042618740359;17.282061021552
Gällsta Ö (Nordanstig kn);62.038341260706;17.325659165815;32050;7418876;Gällsta östra;62.038287393842;17.32561792401
Gärdeåsen (Ljusdal kn);61.832710360884;16.115586574612;61110;7419028;Ljusdal Gärdeåsen;61.832736785236;16.115586672026
Gärdeåsskolan (Ljusdal kn);61.833486071375;16.105667247972;61215;7430124;Ljusdal Gärdeåsskolan;61.833476479033;16.105723930242
Gärdeåsvägen (Ljusdal kn);61.833197785817;16.11027681177;61111;7419029;Ljusdal Gärdeåsvägen;61.833197290776;16.110276638777
Gärdsänget (Hudiksvall kn);61.761663102222;16.941805092122;84414;7407136;Gärdsänget;61.761626138562;16.94187923755
Gästrike Hammarby (Sandviken kn);60.543244872283;16.572084557914;81047;7410503;Hammarby;60.543209002791;16.572029037098
Gästrikevägen (Söderhamn kn);61.297828687314;17.069309104219;82207;7406180;Söderhamn Gästrikevägen;61.297864189311;17.069310339917
Gäveränge (Ockelbo kn);60.898221928847;16.72747295498;1051;7410505;Ockelbo Gäveränge;60.898185194233;16.727545507195
Gävle Andersberg C (Gävle kn);60.651383620468;17.137554379313;80086;7419177;Gävle Andersberg centrum;60.651331501912;17.137350994001
Gävle Borgarskolan (Gävle kn);60.676925093656;17.131637471292;80103;7424583;Gävle Borgarskolan;60.676969667098;17.131639192467
Gävle Bro (Gävle kn);60.646031034931;17.127882214929;80179;7418557;Gävle Gävle Bro;60.646485454546;17.128193220379
Gävle Central (Gävle kn);60.676161479628;17.150617953985;80119;7400210;Gävle Centralstation;60.676245222627;17.151188580778
Gävle Gustavsbro (Gävle kn);60.674451532532;17.108371507013;80176;7419258;Gävle Gustavsbro;60.674416065725;17.108296777793
Gävle Hamn (Gävle kn);60.696997944874;17.201236593263;80687;7445840;Gävle Hamn;60.696996893974;17.201309664114
Gävle Krematorium (Gävle kn);60.672808764613;17.10005356;80632;7418581;Gävle Skogskyrkogården;60.67365823378;17.103143093168
Gävle Rådhuset (Gävle kn);60.67488377858;17.14465455421;80334;7421809;Gävle Rådhuset;60.674504097911;17.144894838101
Gävle Sjukhus (Gävle kn);60.675657049979;17.121869138626;80645;7419424;Gävle Sjukhus Västra väg;60.675629665145;17.121886208582
Gävle Sjukhus ingång 31 (Gävle kn);60.680423505494;17.118183999263;80211;7419286;Gävle Sjukhus ingång 31;60.680329371838;17.118600968936
Gävle Sjukhus ingång 6 (Gävle kn);60.678330043671;17.116561630677;80579;7419644;Gävle Sjukhus ingång 6;60.678373364058;17.116691378081
Gävle Sjukhus Västra vägen (Gävle kn);60.675657049979;17.121869138626;80350;7419424;Gävle Sjukhus Västra väg;60.675629665145;17.121886208582
Gävle Strand (Gävle kn);60.678964809685;17.161916133698;80694;7470393;Gävle Gävle Strand;60.679000411117;17.161917514713
Gävle Tallbacksskolan (Gävle kn);60.708309073279;17.170588376116;80631;7419466;Gävle Stålbogatan;60.707279389914;17.161459858975
Gävletravet (Gävle kn);60.690371112447;17.134350813606;80180;7419242;Gävle Läkerol arena;60.690583980066;17.134579152957
Göklund (Hofors kn);60.54450472343;16.271344415583;4023;7418717;Hofors Göklund;60.544504235662;16.271399109791
Görtsberg (Bollnäs kn);61.357000993384;16.588375019919;83300;7406629;Görtsberg;61.357035936421;16.588469218286
Görtsbo (Bollnäs kn);61.297492729883;16.398587290126;83216;7406551;Görtsbo;61.297510429081;16.39855020812
Haga (Bollnäs kn);61.49781146481;16.364237276481;83053;7406372;Haga;61.497775132042;16.364236493077
Haga (Ovanåker kn);61.36100692804;15.929492685729;21044;7418799;Haga;61.361024520623;15.92939923393
Hagaborg (Söderhamn kn);61.335700429517;17.041298418798;82124;7406100;Hagaborg;61.335726783862;17.041317944371
Hagafjärden (Hudiksvall kn);61.721220795155;17.322697185686;84181;7406851;Hagafjärden;61.721238721125;17.322659950825
Hagaskolan (Hofors kn);60.540677974203;16.292460539014;4024;7418718;Hofors Hagaskolan;60.540659662691;16.292478517565
Hagaström (Gävle kn);60.670816086845;17.072823794333;80182;7417249;Gävle Hagaström;60.670806652243;17.072841616457
Hagaström vattentornet (Gävle kn);60.669748582938;17.042010848009;80444;7419514;Hagaström vattentornet;60.669747786657;17.042065602775
Hagaströms skola (Gävle kn);60.673205382693;17.067886186405;80183;7419260;Gävle Hagaström skola;60.673187837016;17.067812212801
Hagavägen (Sandviken kn);60.543078456799;16.566650668821;81048;7419755;Hammarby Hagavägen;60.543060740436;16.566559138408
Hagelgatan (Gävle kn);60.655078914098;17.148623797915;80705;7432993;Gävle Hagelgatan;60.655078263598;17.148660232192
Haglocket (Nordanstig kn);62.00437978688;16.97572363575;32144;7422765;Haglocket;62.004361367223;16.975722638736
Hagmora (Bollnäs kn);61.566978150526;16.433282131894;83006;7406334;Hagmora;61.567022827893;16.433226423667
Hagmuren (Sandviken kn);60.657395887397;16.440831516207;81049;7419756;Hagmuren;60.657431214475;16.44088706215
Hagmyren (Hudiksvall kn);61.767925188354;17.124722116567;84068;7406743;Hagmyren;61.767888859774;17.124720292747
Hagsta (Gävle kn);60.910485841781;17.034969528769;80184;7418555;Hagsta;60.910449624362;17.034968004286
Hagsta krog (Gävle kn);60.901834577383;17.01302179084;80004;7418556;Hagsta krog;60.901851699161;17.013077592637
Hagstigen (Söderhamn kn);61.2645933089;16.793387866089;82025;7406010;Vannsätter Hagstigen;61.264610592847;16.793425535463
Hagtornsvägen (Hudiksvall kn);61.744953069881;17.130024240983;84293;7406951;Hudiksvall Hagtornsvägen;61.744952992937;17.129986113115
Hagängs (Sandviken kn);60.503785232691;16.781849427989;81320;7457370;Hagängs;60.503784960012;16.781849384657
Hakke gård (Gävle kn);60.903480535143;17.018630793811;80698;7430130;Hakke gård;60.90350679282;17.018668519463
Haga (Bollnäs kn);61.49781146481;16.364237276481;83053;7406372;Haga;61.497775132042;16.364236493077
Haga (Ovanåker kn);61.36100692804;15.929492685729;21044;7418799;Haga;61.361024520623;15.92939923393
Hagaborg (Söderhamn kn);61.335700429517;17.041298418798;82124;7406100;Hagaborg;61.335726783862;17.041317944371
Hagafjärden (Hudiksvall kn);61.721220795155;17.322697185686;84181;7406851;Hagafjärden;61.721238721125;17.322659950825
Hagaskolan (Hofors kn);60.540677974203;16.292460539014;4024;7418718;Hofors Hagaskolan;60.540659662691;16.292478517565
Hagaström (Gävle kn);60.670816086845;17.072823794333;80182;7417249;Gävle Hagaström;60.670806652243;17.072841616457
Hagaström vattentornet (Gävle kn);60.669748582938;17.042010848009;80444;7419514;Hagaström vattentornet;60.669747786657;17.042065602775
Hagaströms skola (Gävle kn);60.673205382693;17.067886186405;80183;7419260;Gävle Hagaström skola;60.673187837016;17.067812212801
Hagavägen (Sandviken kn);60.543078456799;16.566650668821;81048;7419755;Hammarby Hagavägen;60.543060740436;16.566559138408
Hagelgatan (Gävle kn);60.655078914098;17.148623797915;80705;7432993;Gävle Hagelgatan;60.655078263598;17.148660232192
Haglocket (Nordanstig kn);62.00437978688;16.97572363575;32144;7422765;Haglocket;62.004361367223;16.975722638736
Hagmora (Bollnäs kn);61.566978150526;16.433282131894;83006;7406334;Hagmora;61.567022827893;16.433226423667
Hagmuren (Sandviken kn);60.657395887397;16.440831516207;81049;7419756;Hagmuren;60.657431214475;16.44088706215
Hagmyren (Hudiksvall kn);61.767925188354;17.124722116567;84068;7406743;Hagmyren;61.767888859774;17.124720292747
Hagsta (Gävle kn);60.910485841781;17.034969528769;80184;7418555;Hagsta;60.910449624362;17.034968004286
Hagsta krog (Gävle kn);60.901834577383;17.01302179084;80004;7418556;Hagsta krog;60.901851699161;17.013077592637
Hagstigen (Söderhamn kn);61.2645933089;16.793387866089;82025;7406010;Vannsätter Hagstigen;61.264610592847;16.793425535463
Hagtornsvägen (Hudiksvall kn);61.744953069881;17.130024240983;84293;7406951;Hudiksvall Hagtornsvägen;61.744952992937;17.129986113115
Hagängs (Sandviken kn);60.503785232691;16.781849427989;81320;7457370;Hagängs;60.503784960012;16.781849384657
Hakke gård (Gävle kn);60.903480535143;17.018630793811;80698;7430130;Hakke gård;60.90350679282;17.018668519463
Hallen (Bollnäs kn);61.214875030713;16.541787141486;83217;7406552;Hallen;61.214874739178;16.541768418976
Hallonvägen (Bollnäs kn);61.363323326613;16.380518258255;83137;7406473;Bollnäs Hallonvägen;61.363277960502;16.380536012009
Halls (Nordanstig kn);62.087702916247;16.785063918638;32140;7418955;Halls;62.087684750422;16.785024764462
Hallstaåsvägen (Hudiksvall kn);61.757348197878;17.106431110064;84346;7407003;Hudiksvall Hallstaåsvägen;61.75738327845;17.106470198369
Halvägsbacka (Sandviken kn);60.380895866387;16.751193239172;81050;7419757;Halvägsbacka;60.380859974331;16.751155923996
Hambogatan (Bollnäs kn);61.230222964041;16.565882547667;83250;7406583;Kilafors Hambogatan;61.230267018915;16.565957966218
Hammarbyvägen (Sandviken kn);60.579849900786;16.52615990753;81052;7419759;Storvik Hammarbyvägen;60.579813513791;16.526195574592
Hammaren (Bollnäs kn);61.223998610033;16.557132984218;83377;7408769;Hammaren;61.22403452185;16.557059273922
Hammargatan (Gävle kn);60.67639078474;17.178459496393;80185;7419261;Gävle Hammargatan;60.67640844268;17.178460129484
Hammarsjön (Ockelbo kn);60.846518190985;16.706045305682;1052;7418625;Åbron Hammarsjön;60.846545027143;16.706009198444
Hammarsvall (Hudiksvall kn);61.79757999469;16.502836543258;84234;7406896;Hammarsvall;61.797579906198;16.502760498061
Hammarvägen (Söderhamn kn);61.278454729012;16.97372775291;82026;7406011;Söderala Hammarvägen;61.278435758159;16.973801461066
Hammergård (Ljusdal kn);61.807744972832;15.736051544651;61081;7419013;Hammergård;61.807762399082;15.736032419892
Hamnplan (Hudiksvall kn);61.72693019594;17.11901627169;84294;7406952;Hudiksvall Hamnplan;61.726929936675;17.118997080441
Hamre (Bollnäs kn);61.527515837416;16.36398039847;83373;7407137;Hamre;61.527658809883;16.364020411784
Hamre (Nordanstig kn);61.998423090154;17.033363585199;32106;7418929;Hamre;61.998387071194;17.033323669124
Hamre (Söderhamn kn);61.355508548633;16.999028593867;82125;7406101;Hamre;61.355489553733;16.99910245223
Hamreberget (Hudiksvall kn);61.767858496838;16.878936021661;84101;7406776;Hamreberget;61.767875245983;16.879031075339
Hamréns (Hudiksvall kn);61.822791254793;16.784814769264;84110;7406785;Bästdal Hamréns;61.822782358802;16.784738342061
Hamrångefjärden (Gävle kn);60.897854326312;17.069232734414;80186;7400596;Hamrångefjärden;60.897835365563;17.069305550387
Hamsas (Sandviken kn);60.679404720395;16.662985543836;81054;7419761;Hamsas;60.679440777969;16.662913265601
Haneborg (Bollnäs kn);61.228537198431;16.570421543344;83219;7406554;Kilafors Haneborg;61.228537014848;16.570384192483
Hangarvägen (Söderhamn kn);61.270617205043;17.094987381034;82365;7406318;Söderhamn Flygstad Hangarvägen;61.270607145546;17.095061349556
Hanks (Bollnäs kn);61.448925518289;16.445139335129;83054;7406373;Flästa Hanks;61.448961156548;16.445102435088
Hans-Ers (Bollnäs kn);61.630398796344;16.291176700689;83007;7406335;Hans-Ers;61.630416214684;16.291195681646
Hantverkarn (Hofors kn);60.547313103416;16.284286742226;4025;7418719;Hofors Hantverkarn;60.54733042906;16.284378147859
Hantverksgården (Ljusdal kn);61.827628440531;16.100638074321;61112;7419030;Ljusdal Hantverksgården;61.827654661635;16.100733047249
Hanåsen (Gävle kn);60.581550459114;17.130283121561;80026;7419128;Hanåsen vägskäl;60.581568131115;17.130283746337
Harkskär (Gävle kn);60.766795144869;17.323692002191;80187;7419262;Harkskär;60.766759793106;17.323616776384
Harmånger Kyrkan (Nordanstig kn);61.927019439312;17.221107566409;32003;7418838;Harmånger Kyrkan;61.927132876846;17.220503155679
Harmånger station (Nordanstig kn);61.9074662392;17.267284695248;32041;7418867;Harmånger station;61.907438064969;17.267359166952
Harmånger torget (Nordanstig kn);61.928308476502;17.217053885269;32004;7400599;Harmånger torget;61.928334147179;17.217130937977
Harsne (Hudiksvall kn);61.749816935509;16.844402403161;84219;7406883;Harsne;61.749834998604;16.844327052074
Hassela badet (Nordanstig kn);62.099736199143;16.731644010342;32121;7418944;Hassela badet;62.09971801491;16.731604875169
Hassela bstn (Nordanstig kn);62.110203315224;16.706544166898;32123;7400371;Hassela busstation;62.110202192993;16.706639624983
Hasselbacken (Hudiksvall kn);61.770462880919;17.086069604517;84150;7406821;Hasselbacken;61.770499024406;17.085995062161
Hedbacka (Söderhamn kn);61.282474021864;16.95284038492;82027;7406012;Söderala Hedbacka;61.282473320151;16.952877484452
Heden (Bollnäs kn);61.355046772706;16.357264431678;83139;7406475;Bollnäs Heden;61.35520734295;16.357397986042
Heden (Ljusdal kn);61.849707763711;15.995619966753;61026;7411952;Heden;61.849734284933;15.995544007091
Heden (Ockelbo kn);60.787038834157;16.722186206335;1054;7418627;Heden;60.787020817646;16.722148905097
Heden (Söderhamn kn);61.283854734522;16.948750385778;82028;7406013;Söderala Heden;61.283853719726;16.948824776489
Hedenvägen (Bollnäs kn);61.351466720742;16.3459320839;83833;7406475;Bollnäs Heden;61.35520734295;16.357397986042
Hedesunda bstn (Gävle kn);60.393633518706;17.006264125004;80527;7400631;Hedesunda busstation;60.393615979151;17.006190869896
Hedesunda Kyrka (Gävle kn);60.377850691445;17.01846540285;80529;7419595;Hedesunda kyrka;60.377886174773;17.018484797962
Hedesunda rondellen (Gävle kn);60.397665726331;17.0040541851;80526;7419593;Hedesunda rondellen;60.397675104211;17.003981910821
Hedgrind (Sandviken kn);60.599042338775;16.771999406369;81056;7419763;Sandviken Hedgrind;60.599266783948;16.771951302072
Hedhamre (Bollnäs kn);61.352737937036;16.383819322961;83140;7406476;Bollnäs Hedhamre;61.352764120622;16.383894454922
Hedsta (Ljusdal kn);61.896373317901;15.90472651375;61035;7418975;Hedsta;61.896399724308;15.904726439404
Hedströms (Gävle kn);60.918313999378;17.075444312933;80189;7419264;Totra Hedströms;60.918331442091;17.075463305871
Hedvigslund (Gävle kn);60.664342360989;17.123291516244;80283;7419357;Gävle Löjtnantsvägen;60.664306544923;17.123253361745
Hedåsbadet (Sandviken kn);60.581854228249;16.762017931138;81057;7419764;Sandviken Hedåsbadet;60.581836516698;16.761944390352
Hedåsen (Sandviken kn);60.411191499464;16.710730687822;81058;7419765;Hedåsen;60.4112096799;16.710658589461
Hedåskiosken (Sandviken kn);60.574170381879;16.75836205265;81294;7419976;Sandviken Hedåskiosken;60.57414265666;16.75843415275
Hedåsstrand (Sandviken kn);60.58532579609;16.763543637818;81165;7419863;Sandviken Hedåsstrand;60.585325770839;16.763507102002
Hedåsvägen (Bollnäs kn);61.344267974675;16.346331366663;83141;7406477;Bollnäs Hedåsvägen;61.344393034687;16.346370786816
Hedåsvägen (Sandviken kn);60.60020874948;16.775776319262;81059;7419763;Sandviken Hedgrind;60.599266783948;16.771951302072
Helenedal (Hudiksvall kn);61.724910494936;17.141365879375;84296;7406954;Hudiksvall Helenedal;61.724918474138;17.14142271133
Helenedalskiosken (Hudiksvall kn);61.726347323473;17.123645257172;84297;7406955;Hudiksvall Helenedalskiosken;61.726256629076;17.123697876122
Hemlingby köpcentrum (Gävle kn);60.646104076807;17.148506391889;80614;7419678;Gävle Hemlingby köpcentrum;60.64610416073;17.148469722893
Hemsta (Gävle kn);60.659493460988;17.163036252821;80193;7419268;Gävle Hemsta;60.659510380256;17.163110006053
Hennan (Ljusdal kn);62.023834886468;15.904564959012;61041;7422648;Hennan;62.023816413062;15.904564710905
Hennans camping (Ljusdal kn);62.017310022353;15.906720794881;61203;7419104;Hennan camping;62.017354415627;15.906644372368
Herrgården (Ljusdal kn);61.792746409821;16.21413554012;61205;7419106;Hybo Herrgården;61.792727978634;16.214135124474
Herrgården (Sandviken kn);60.606629880127;16.629215393562;81060;7419767;Hillsta Herrgården;60.606593689962;16.629214445525
Herrgården Övertänger (Falun kn);60.855548184458;15.751103457405;91021;7408828;Övertänger Herrgården;60.855556828493;15.75119550067
Herrgårdshagen (Gävle kn);60.670691562593;17.186266838868;80485;7419553;Gävle Herrgårdshagen;60.670673333259;17.186265939461
Herrmans (Hudiksvall kn);61.765823658569;16.71174999081;84396;7407044;Södra Sannäs Herrmans;61.765850364307;16.71171267206
Herte (Bollnäs kn);61.26502097919;16.405468211372;83222;7406557;Herte;61.264993982776;16.405393049493
Herte såg (Bollnäs kn);61.260485700055;16.416283313228;83273;7406603;Herte såg;61.260458291878;16.416301318989
HIAB (Hudiksvall kn);61.724455910458;17.136427864118;84298;7406956;Hudiksvall HIAB;61.724428008078;17.136483147883
HIAB vakten (Hudiksvall kn);61.723902575444;17.12868613963;84299;7406957;Hudiksvall HIAB vakten;61.72387504074;17.128703613382
Hille (Gävle kn);60.730568538817;17.18384994126;80194;7419269;Hille vägskäl;60.730567867675;17.183886444254
Hille församlingsgård (Gävle kn);60.732156717892;17.176897487126;80296;7419370;Hille Församlingsgården;60.732078482845;17.176619073277
Hille kyrka (Gävle kn);60.733833476323;17.17970031141;80196;7419271;Hille kyrka;60.734728844484;17.180765006898
Hillevallsvägen (Gävle kn);60.730729061643;17.174307177007;80197;7419272;Hille Hillevallsvägen;60.730755122034;17.174363148338
Hillsta (Hudiksvall kn);61.739180653359;16.885357044656;84213;7406878;Hillsta;61.739197699765;16.885414177971
Hillsta (Sandviken kn);60.607615347934;16.642532198751;81061;7419768;Hillsta;60.607589044959;16.642385426598
Hirkaho (Sandviken kn);60.763194179022;16.459193260321;81063;7419770;Kungsberg Hirkaho;60.763158313963;16.459119123673
Hjortens (Sandviken kn);60.571888053875;16.593188132192;81064;7419771;Hjortens;60.571897059532;16.593133621963
Hjortronvägen (Hudiksvall kn);61.741508768075;17.118614751075;84300;7406958;Hudiksvall Hjortronvägen;61.74128885974;17.119040448877
Hjortsta (Hudiksvall kn);61.767856180861;16.992629301349;84096;7406771;Hjortsta;61.767837297271;16.992685148275
Hjortstas (Gävle kn);60.415980364767;16.98454319437;80647;7419695;Hedesunda Hjortstas;60.415980434399;16.984506840655
Hjälpmedel SAM (Gävle kn);60.668715716559;17.083223623016;80030;7419131;Gävle Hjälpmedel SAM;60.668733721794;17.083187645081
Hobacka (Söderhamn kn);61.289662031449;17.014007388165;82209;7406181;Söderhamn Hobacka;61.289662143547;17.0139512476
Hofors Centrum (Hofors kn);60.54514942496;16.291944511385;4026;7418758;Hofors Tigréns;60.54505852126;16.29218006763
Hofors jvstn (Hofors kn);60.569758946616;16.266582862199;4027;7400218;Hofors station;60.56957093258;16.266361394182
Hofors kyrka (Hofors kn);60.550903246021;16.289242291908;4029;7418721;Hofors kyrka;60.550903211628;16.289169423208
Hoforsbacken (Hofors kn);60.560651199854;16.331774130578;4028;7418720;Hoforsbacken;60.560614932321;16.331791797751
Hogatan (Ovanåker kn);61.35751251552;15.900300585667;21024;7418530;Ovanåker Hogatan;61.357548021908;15.900225878379
Hogland (Nordanstig kn);61.881850333524;17.038201826216;32081;7418906;Hogland;61.881859183187;17.038163877834
Holmkanalen (Gävle kn);60.679081564504;17.156577450811;80563;7419628;Gävle Holmkanalen;60.679053991599;17.156612779609
Holmsund (Gävle kn);60.674728016636;17.229420957142;80486;7419554;Gävle Holmsund;60.674709594183;17.229438315446
Holmsveden (Ljusdal kn);62.17102143517;15.671703715967;61045;7418983;Holmsveden;62.17102981431;15.671665092204
Holmsveden jvstn (Söderhamn kn);61.118363675656;16.721276190615;82317;7400632;Holmsveden station;61.118135465925;16.721788927818
Holsjön (Nordanstig kn);61.889021502424;17.042122467813;32082;7418907;Holsjön;61.889003610198;17.042064414092
Homna (Ovanåker kn);61.346596172189;15.620862315816;21008;7418783;Homna;61.346595695113;15.620843628362
Homons ÅVC (Nordanstig kn);0.0058704365823196;-2.0452751445467;;;not found;;
Hov (Bollnäs kn);61.513646014021;16.360876463266;83008;7406336;Vallsta Hov;61.513672185731;16.360951939028
Hovsätter (Hudiksvall kn);61.746557794583;17.286497684955;84177;7406847;Hovsätter;61.746585085192;17.286422987427
Hudiks backe (Hudiksvall kn);61.739441147104;17.116161041153;84301;7406959;Hudiksvall Hudiks backe;61.739525417809;17.115747987507
Hudiksvall Centrum (Hudiksvall kn);61.727751549916;17.107227065867;84282;7406940;Hudiksvall centrum;61.727669652527;17.107299026368
Hudiksvall Sjukhusentrén (Hudiksvall kn);61.729753661857;17.099554355626;84424;7445852;Hudiksvall Sjukhusentrén;61.72971662298;17.099628221964
Hudiksvall Sjukhuset (Hudiksvall kn);61.729732555683;17.100840017334;84058;7406734;Hudiksvall Sjukhuset;61.729704130047;17.100952082936
Hudiksvalls station (Hudiksvall kn);61.72492962999;17.108583618831;84059;7400187;Hudiksvall station;61.724494091542;17.109037894185
Hudiksvägen (Hudiksvall kn);61.740089739649;17.120598400331;84302;7406960;Hudiksvall Hudiksvägen;61.74010633314;17.120693474491
Humlegatan (Hudiksvall kn);61.738542737816;17.106830586772;84304;7406961;Hudiksvall Humlegatan;61.738445588067;17.106618050895
Hummelstinas (Hudiksvall kn);61.763205483234;16.963434342917;84432;7463033;Wålsta;61.760825019301;16.951887009517
Huseliiharen (Gävle kn);60.729727808309;17.283084316177;80200;7419275;Engesberg Huseliiharen;60.729692437648;17.283009233135
Husta (Nordanstig kn);62.040750193438;17.313030481675;32048;7418874;Gällsta Husta vägskäl;62.040759735772;17.312935056208
Hybo jvstn (Ljusdal kn);61.797115387792;16.192769998177;61187;7410631;Hybo station;61.797098554097;16.192200853544
Hybovägen (Ljusdal kn);61.805507438772;16.254167091873;61003;7418961;Gryttjesbo vägskäl Hybovägen;61.805525023289;16.254129241305
Hyttmarksvägen (Sandviken kn);60.502832069599;16.739416632589;81326;7457448;Hyttmarksvägen;60.502831795572;16.739416596109
Hå (Bollnäs kn);61.237694214827;16.417610912945;83225;7406560;Hå;61.237658256018;16.417535634902
Hå skola (Bollnäs kn);61.242756741729;16.417373947651;83226;7406561;Hå skola;61.242773951409;16.417448684578
Håcksta (Hudiksvall kn);61.750429159429;17.277860662926;84176;7406846;Håcksta;61.750446256366;17.277899062173
Hålsjö affären (Hudiksvall kn);61.826038083855;16.780002871131;84111;7425930;Hålsjö affären;61.826045918588;16.780097768556
Hålsjö såg (Hudiksvall kn);61.828432311249;16.745441453793;84114;7406787;Hålsjö såg;61.828440816543;16.745441476712
Hålsänge (Hudiksvall kn);61.568938617455;17.025171118691;84030;7406710;Hålsänge;61.568947165358;17.025171227268
Hårga (Bollnäs kn);61.266997987464;16.545093047511;83227;7406562;Hårga;61.266997891839;16.545037011459
Håsta udde (Hudiksvall kn);61.721535545945;17.105924735678;84305;7406962;Hudiksvall Håsta udde;61.721580140042;17.105907438889
Håstakyrkan (Hudiksvall kn);61.720850346733;17.086224972345;84307;7406964;Hudiksvall Håstakyrkan;61.720868024646;17.086206533723
Håstaskolan (Hudiksvall kn);61.719063094353;17.09116286347;84306;7406963;Hudiksvall Håstaskolan;61.719026061018;17.091236717048
Håstavillorna (Hudiksvall kn);61.715998589475;17.094477181979;84367;7407022;Hudiksvall Håstavillorna;61.716033678512;17.094516211321
Håstaängen (Hudiksvall kn);61.714160397515;17.085682874861;84053;7406729;Hudiksvall Håstaängen;61.714143250387;17.085549536702
Häckelsäng (Gävle kn);60.926234349653;17.057760750518;80202;7419277;Häckelsäng;60.926216589358;17.057704594171
Häggesta (Bollnäs kn);61.336031443593;16.399744466159;83143;7406479;Bollnäs Häggesta;61.33600369995;16.399837231622
Hägnabacken (Bollnäs kn);61.403391383602;16.514091642633;83303;7406632;Växbo Hägnabacken;61.403390476153;16.514185087988
Hägnan (Söderhamn kn);61.398537425256;16.829956193982;82126;7406102;Hägnan;61.398509537573;16.830029978606
Hägnavägen (Söderhamn kn);61.321570044798;17.062272356202;82210;7406182;Söderhamn Hägnavägen;61.321534114845;17.062233377949
Hällagården (Bollnäs kn);61.233314941558;16.558583892126;83228;7406563;Kilafors Hällagården;61.233359412899;16.558584841361
Hällbo (Bollnäs kn);61.219475181937;16.421873003708;83229;7410651;Hällbo;61.21951084683;16.421836386957
Hällbogården (Bollnäs kn);61.223858701789;16.420972117958;83376;7408768;Hällbogården;61.223822325008;16.420989929428
Hällbovägen (Bollnäs kn);61.309785546601;16.378045895948;83146;7406482;Hällbo vägskäl Kråknäs;61.309803001924;16.378064776724
Hällby (Gävle kn);60.425833752586;17.195341737498;80539;7410652;Hällby;60.425797995914;17.195303810204
Hällmyran (Söderhamn kn);61.28429372141;17.084711809604;82211;7406183;Hällmyran;61.284348046977;17.084620572149
Hällskär (Gävle kn);60.919656758459;17.114271875231;80203;7419278;Epa Hällskär;60.9196657618;17.114235225759
Hällsätter (Hudiksvall kn);61.763479760934;17.058940972536;84087;7406762;Hällsätter;61.76347879552;17.058997493445
Hällsätter (Söderhamn kn);61.390370617088;16.854708807226;82127;7406103;Hällsätter;61.390334754889;16.854651288203
Hällåsen (Söderhamn kn);61.291256946671;17.068559921885;82212;7406184;Söderhamn Hällåsen;61.2912286074;17.068670523413
Hälsingberg (Falun kn);60.589605014356;15.708221756227;91001;7408833;Falun Hälsingberg väg 80;60.589613797441;15.708404313458
Hälsingenybo (Ljusdal kn);62.072500390994;15.832353444725;61043;7418981;Hälsingenybo;62.07248189765;15.832410625872
Hälsingtuna (Hudiksvall kn);61.755618365234;17.083256621777;84085;7406760;Hälsingtuna;61.75562653883;17.083294569275
Hälsocentralen (Bollnäs kn);61.469967662835;16.374601185267;83056;7406375;Arbrå Hälsocentralen;61.470003041625;16.37462046066
Hälsocentralen (Hudiksvall kn);61.728700408478;17.112204985561;84308;7406965;Hudiksvall Hälsocentralen;61.728699427359;17.112261440123
Hänsätter (Bollnäs kn);61.527770356564;16.388981996259;83009;7406337;Hänsätter;61.527733860618;16.389018761042
Härjedalsvägen (Söderhamn kn);61.297632098165;17.07307029698;82213;7406185;Söderhamn Härjedalsvägen;61.297650004952;17.073033509122
Härnebokvarn (Söderhamn kn);61.115270846075;16.766096846759;82396;7445021;Härnebokvarn;61.115288159405;16.766134349626
Härnebosjön (Söderhamn kn);61.111325872463;16.729437873023;82318;7406283;Härnebosjön;61.111325249375;16.729474833661
Hästbacka (Sandviken kn);60.50488155291;16.798717781849;81317;7457368;Hästbacka;60.504916498447;16.79880981484
Hästbo (Gävle kn);60.562489542465;17.12622157144;80027;7419129;Hästbo;60.562489272518;17.126221465314
Hästmuren (Gävle kn);60.549308577998;17.126632309165;80028;7419130;Hästmuren;60.549290725358;17.126595035271
Högbacka (Söderhamn kn);61.254589239211;16.829370139305;82029;7406014;Bergvik Högbacka;61.254651097405;16.82944652742
Högbo bruk (Sandviken kn);60.670032374954;16.810584144115;81020;7417977;Högbo kyrka;60.6707078879;16.80903183694
Högbo kyrka (Sandviken kn);60.670698939217;16.809068209518;81066;7417977;Högbo kyrka;60.6707078879;16.80903183694
Högen Hånicksvägen (Nordanstig kn);61.945112664213;17.06368944077;32092;7418917;Högen Hånicksv;61.945075617899;17.063763838431
Högen storavägen (Nordanstig kn);61.942528653119;17.055734103557;32090;7418915;Högen Stora vägen;61.94254681768;17.055658352384
Höghammar (Bollnäs kn);61.356437742476;16.426056623279;83147;7406483;Bollnäs Höghammar;61.356437495164;16.426019118623
Höglunda (Bollnäs kn);61.357584024478;16.394264346091;83148;7406484;Bollnäs Höglunda;61.357565658701;16.394263889843
Högmyr (Bollnäs kn);61.596115544497;16.297327688175;83363;7406682;Djupa (Undersvik) Högmyr;61.59611535882;16.297252198502
Högs kyrka (Hudiksvall kn);61.766619827763;17.04122505422;84088;7406763;Hög kyrka;61.766602289367;17.041129380748
Högs-Hallsta (Hudiksvall kn);61.767248200293;16.982983151015;84097;7406772;Högs-Hallsta;61.767292444519;16.983003530421
Högs-Holm (Hudiksvall kn);61.765117546113;17.024553352028;84089;7406764;Högs-Holm;61.765134703993;17.024591655672
